{"type": "FeatureCollection", "features": [{"type": "Feature", "properties": {"id": "6523", "ident": "00A", "name": "Total RF Heliport", "type": "heliport", "iso_country": "US", "municipality": "Bensalem", "iata_code": "", "icao_code": ""}, "geometry": {"type": "Point", "coordinates": [-74.933689, 40.070985]}}, {"type": "Feature", "properties": {"id": "323361", "ident": "00AA", "name": "Aero B Ranch Airport", "type": "small_airport", "iso_country": "US", "municipality": "Leoti", "iata_code": "", "icao_code": ""}, "geometry": {"type": "Point", "coordinates": [-101.473911, 38.704022]}}, {"type": "Feature", "properties": {"id": "6524", "ident": "00AK", "name": "Lowell Field", "type": "small_airport", "iso_country": "US", "municipality": "Anchor Point", "iata_code": "", "icao_code": ""}, "geometry": {"type": "Point", "coordinates": [-151.692524, 59.947733]}}, {"type": "Feature", "properties": {"id": "6525", "ident": "00AL", "name": "Epps Airpark", "type": "small_airport", "iso_country": "US", "municipality": "Harvest", "iata_code": "", "icao_code": ""}, "geometry": {"type": "Point", "coordinates": [-86.77030181884766, 34.86479949951172]}}, {"type": "Feature", "properties": {"id": "506791", "ident": "00AN", "name": "Katmai Lodge Airport", "type": "small_airport", "iso_country": "US", "municipality": "King Salmon", "iata_code": "", "icao_code": ""}, "geometry": {"type": "Point", "coordinates": [-156.456699, 59.093287]}}, {"type": "Feature", "properties": {"id": "322127", "ident": "00AS", "name": "Fulton Airport", "type": "small_airport", "iso_country": "US", "municipality": "Alex", "iata_code": "", "icao_code": ""}, "geometry": {"type": "Point", "coordinates": [-97.8180194, 34.9428028]}}, {"type": "Feature", "properties": {"id": "6527", "ident": "00AZ", "name": "Cordes Airport", "type": "small_airport", "iso_country": "US", "municipality": "Cordes", "iata_code": "", "icao_code": ""}, "geometry": {"type": "Point", "coordinates": [-112.16500091552734, 34.305599212646484]}}, {"type": "Feature", "properties": {"id": "6528", "ident": "00CA", "name": "Goldstone (GTS) Airport", "type": "small_airport", "iso_country": "US", "municipality": "Barstow", "iata_code": "", "icao_code": ""}, "geometry": {"type": "Point", "coordinates": [-116.885329, 35.35474]}}, {"type": "Feature", "properties": {"id": "324424", "ident": "00CL", "name": "Williams Ag Airport", "type": "small_airport", "iso_country": "US", "municipality": "Biggs", "iata_code": "", "icao_code": ""}, "geometry": {"type": "Point", "coordinates": [-121.763427, 39.427188]}}, {"type": "Feature", "properties": {"id": "322658", "ident": "00CN", "name": "Kitchen Creek Helibase Heliport", "type": "heliport", "iso_country": "US", "municipality": "Pine Valley", "iata_code": "", "icao_code": ""}, "geometry": {"type": "Point", "coordinates": [-116.4597417, 32.7273736]}}, {"type": "Feature", "properties": {"id": "6531", "ident": "00FA", "name": "Grass Patch Airport", "type": "small_airport", "iso_country": "US", "municipality": "Bushnell", "iata_code": "", "icao_code": ""}, "geometry": {"type": "Point", "coordinates": [-82.21900177001953, 28.64550018310547]}}, {"type": "Feature", "properties": {"id": "6533", "ident": "00FL", "name": "River Oak Airport", "type": "small_airport", "iso_country": "US", "municipality": "Okeechobee", "iata_code": "", "icao_code": ""}, "geometry": {"type": "Point", "coordinates": [-80.96920013427734, 27.230899810791016]}}, {"type": "Feature", "properties": {"id": "6534", "ident": "00GA", "name": "Lt World Airport", "type": "small_airport", "iso_country": "US", "municipality": "Lithonia", "iata_code": "", "icao_code": ""}, "geometry": {"type": "Point", "coordinates": [-84.06829833984375, 33.76750183105469]}}, {"type": "Feature", "properties": {"id": "6535", "ident": "00GE", "name": "Caffrey Heliport", "type": "heliport", "iso_country": "US", "municipality": "Hiram", "iata_code": "", "icao_code": ""}, "geometry": {"type": "Point", "coordinates": [-84.736983, 33.887982]}}, {"type": "Feature", "properties": {"id": "6536", "ident": "00HI", "name": "Kaupulehu Heliport", "type": "heliport", "iso_country": "US", "municipality": "Kailua-Kona", "iata_code": "", "icao_code": ""}, "geometry": {"type": "Point", "coordinates": [-155.978347, 19.832881]}}, {"type": "Feature", "properties": {"id": "6537", "ident": "00ID", "name": "Delta Shores Airport", "type": "small_airport", "iso_country": "US", "municipality": "Clark Fork", "iata_code": "", "icao_code": ""}, "geometry": {"type": "Point", "coordinates": [-116.21399688720703, 48.145301818847656]}}, {"type": "Feature", "properties": {"id": "322581", "ident": "00IG", "name": "Goltl Airport", "type": "small_airport", "iso_country": "US", "municipality": "McDonald", "iata_code": "", "icao_code": ""}, "geometry": {"type": "Point", "coordinates": [-101.395994, 39.724028]}}, {"type": "Feature", "properties": {"id": "6539", "ident": "00IL", "name": "Hammer Airport", "type": "small_airport", "iso_country": "US", "municipality": "Polo", "iata_code": "", "icao_code": ""}, "geometry": {"type": "Point", "coordinates": [-89.560402, 41.978401]}}, {"type": "Feature", "properties": {"id": "6540", "ident": "00IN", "name": "St Mary Medical Center Heliport", "type": "heliport", "iso_country": "US", "municipality": "Hobart", "iata_code": "", "icao_code": ""}, "geometry": {"type": "Point", "coordinates": [-87.2605972290039, 41.51139831542969]}}, {"type": "Feature", "properties": {"id": "6541", "ident": "00IS", "name": "Hayenga's Cant Find Farms Airport", "type": "small_airport", "iso_country": "US", "municipality": "Kings", "iata_code": "", "icao_code": ""}, "geometry": {"type": "Point", "coordinates": [-89.1229019165039, 40.02560043334961]}}, {"type": "Feature", "properties": {"id": "6542", "ident": "00KS", "name": "Hayden Farm Airport", "type": "small_airport", "iso_country": "US", "municipality": "Gardner", "iata_code": "", "icao_code": ""}, "geometry": {"type": "Point", "coordinates": [-94.93049621582031, 38.72779846191406]}}, {"type": "Feature", "properties": {"id": "6543", "ident": "00KY", "name": "Robbins Roost Airport", "type": "small_airport", "iso_country": "US", "municipality": "Stanford", "iata_code": "", "icao_code": ""}, "geometry": {"type": "Point", "coordinates": [-84.61969757080078, 37.409400939941406]}}, {"type": "Feature", "properties": {"id": "45437", "ident": "00LA", "name": "Shell Chemical East Site Heliport", "type": "heliport", "iso_country": "US", "municipality": "Gonzales", "iata_code": "", "icao_code": ""}, "geometry": {"type": "Point", "coordinates": [-90.980833, 30.191944]}}, {"type": "Feature", "properties": {"id": "6544", "ident": "00LL", "name": "Ac & R Components Heliport", "type": "heliport", "iso_country": "US", "municipality": "Chatham", "iata_code": "", "icao_code": ""}, "geometry": {"type": "Point", "coordinates": [-89.70559692382812, 39.66529846191406]}}, {"type": "Feature", "properties": {"id": "6545", "ident": "00LS", "name": "Lejeune Airport", "type": "small_airport", "iso_country": "US", "municipality": "Crowley", "iata_code": "", "icao_code": ""}, "geometry": {"type": "Point", "coordinates": [-92.429398, 30.136299]}}, {"type": "Feature", "properties": {"id": "6546", "ident": "00MD", "name": "Slater Field", "type": "small_airport", "iso_country": "US", "municipality": "Federalsburg", "iata_code": "", "icao_code": ""}, "geometry": {"type": "Point", "coordinates": [-75.75379943847656, 38.75709915161133]}}, {"type": "Feature", "properties": {"id": "6547", "ident": "00MI", "name": "Dow Chemical Heliport", "type": "heliport", "iso_country": "US", "municipality": "Ludington", "iata_code": "", "icao_code": ""}, "geometry": {"type": "Point", "coordinates": [-86.41670227050781, 43.94940185546875]}}, {"type": "Feature", "properties": {"id": "6548", "ident": "00MN", "name": "Battle Lake Municipal Airport", "type": "small_airport", "iso_country": "US", "municipality": "Battle Lake", "iata_code": "", "icao_code": ""}, "geometry": {"type": "Point", "coordinates": [-95.70030212402344, 46.29999923706055]}}, {"type": "Feature", "properties": {"id": "6549", "ident": "00MO", "name": "Cooper Flying Service Airport", "type": "small_airport", "iso_country": "US", "municipality": "Alba", "iata_code": "", "icao_code": ""}, "geometry": {"type": "Point", "coordinates": [-94.412399291992, 37.202800750732]}}, {"type": "Feature", "properties": {"id": "324642", "ident": "00MT", "name": "Livingston Healthcare Heliport", "type": "heliport", "iso_country": "US", "municipality": "Livingston", "iata_code": "", "icao_code": ""}, "geometry": {"type": "Point", "coordinates": [-110.52515, 45.675]}}, {"type": "Feature", "properties": {"id": "6551", "ident": "00N", "name": "Bucks Airport", "type": "small_airport", "iso_country": "US", "municipality": "Bridgeton", "iata_code": "", "icao_code": ""}, "geometry": {"type": "Point", "coordinates": [-75.184346, 39.472998]}}, {"type": "Feature", "properties": {"id": "6552", "ident": "00NC", "name": "North Raleigh Airport", "type": "small_airport", "iso_country": "US", "municipality": "Louisburg", "iata_code": "", "icao_code": ""}, "geometry": {"type": "Point", "coordinates": [-78.37139892578125, 36.085201263427734]}}, {"type": "Feature", "properties": {"id": "6553", "ident": "00NJ", "name": "Colgate-Piscataway Heliport", "type": "heliport", "iso_country": "US", "municipality": "New Brunswick", "iata_code": "", "icao_code": ""}, "geometry": {"type": "Point", "coordinates": [-74.47460174560547, 40.52090072631836]}}, {"type": "Feature", "properties": {"id": "321919", "ident": "00NK", "name": "Cliche Cove Seaplane Base", "type": "seaplane_base", "iso_country": "US", "municipality": "Beekmantown", "iata_code": "", "icao_code": ""}, "geometry": {"type": "Point", "coordinates": [-73.3698057, 44.8118612]}}, {"type": "Feature", "properties": {"id": "506039", "ident": "00NR", "name": "Rodanthe Dare County Heliport", "type": "heliport", "iso_country": "US", "municipality": "Rodanthe", "iata_code": "", "icao_code": ""}, "geometry": {"type": "Point", "coordinates": [-75.470002, 35.594729]}}, {"type": "Feature", "properties": {"id": "6554", "ident": "00NY", "name": "Weiss Airfield", "type": "small_airport", "iso_country": "US", "municipality": "West Bloomfield", "iata_code": "", "icao_code": ""}, "geometry": {"type": "Point", "coordinates": [-77.495263, 42.89576]}}, {"type": "Feature", "properties": {"id": "6556", "ident": "00OI", "name": "Miami Valley Hospital Heliport", "type": "heliport", "iso_country": "US", "municipality": "Dayton", "iata_code": "", "icao_code": ""}, "geometry": {"type": "Point", "coordinates": [-84.187278, 39.745091]}}, {"type": "Feature", "properties": {"id": "328503", "ident": "00OK", "name": "Gull Bay Landing Airport", "type": "small_airport", "iso_country": "US", "municipality": "Sandsprings", "iata_code": "", "icao_code": ""}, "geometry": {"type": "Point", "coordinates": [-96.217693, 36.198598]}}, {"type": "Feature", "properties": {"id": "6557", "ident": "00OR", "name": "Steel Systems Heliport", "type": "heliport", "iso_country": "US", "municipality": "Salem", "iata_code": "", "icao_code": ""}, "geometry": {"type": "Point", "coordinates": [-123.12999725341797, 44.932899475097656]}}, {"type": "Feature", "properties": {"id": "6558", "ident": "00PA", "name": "R J D Heliport", "type": "heliport", "iso_country": "US", "municipality": "Coatesville", "iata_code": "", "icao_code": ""}, "geometry": {"type": "Point", "coordinates": [-75.74690246582031, 39.94889831542969]}}, {"type": "Feature", "properties": {"id": "45773", "ident": "00PN", "name": "Ferrell Field", "type": "small_airport", "iso_country": "US", "municipality": "Mercer", "iata_code": "", "icao_code": ""}, "geometry": {"type": "Point", "coordinates": [-80.211111, 41.2995]}}, {"type": "Feature", "properties": {"id": "6560", "ident": "00S", "name": "McKenzie Bridge State Airport", "type": "small_airport", "iso_country": "US", "municipality": "Blue River", "iata_code": "", "icao_code": ""}, "geometry": {"type": "Point", "coordinates": [-122.086, 44.181466]}}, {"type": "Feature", "properties": {"id": "6561", "ident": "00SC", "name": "Flying O Airport", "type": "small_airport", "iso_country": "US", "municipality": "Sumter", "iata_code": "", "icao_code": ""}, "geometry": {"type": "Point", "coordinates": [-80.26719665527344, 34.0093994140625]}}, {"type": "Feature", "properties": {"id": "330391", "ident": "00SD", "name": "Homan Field", "type": "small_airport", "iso_country": "US", "municipality": "Gary", "iata_code": "", "icao_code": ""}, "geometry": {"type": "Point", "coordinates": [-96.498897, 44.809158]}}, {"type": "Feature", "properties": {"id": "6563", "ident": "00TE", "name": "Tcjc-Northeast Campus Heliport", "type": "heliport", "iso_country": "US", "municipality": "Fort Worth", "iata_code": "", "icao_code": ""}, "geometry": {"type": "Point", "coordinates": [-97.18949890136719, 32.847599029541016]}}, {"type": "Feature", "properties": {"id": "6565", "ident": "00TS", "name": "Alpine Range Airport", "type": "small_airport", "iso_country": "US", "municipality": "Everman", "iata_code": "", "icao_code": ""}, "geometry": {"type": "Point", "coordinates": [-97.24199676513672, 32.607601165771484]}}, {"type": "Feature", "properties": {"id": "516563", "ident": "00TT", "name": "Nowhere Airport", "type": "small_airport", "iso_country": "US", "municipality": "Goodlett", "iata_code": "", "icao_code": ""}, "geometry": {"type": "Point", "coordinates": [-99.93694, 34.516606]}}, {"type": "Feature", "properties": {"id": "6568", "ident": "00VA", "name": "Vaughan Airport", "type": "small_airport", "iso_country": "US", "municipality": "Alton", "iata_code": "", "icao_code": ""}, "geometry": {"type": "Point", "coordinates": [-78.998437, 36.574964]}}, {"type": "Feature", "properties": {"id": "6569", "ident": "00VI", "name": "Groundhog Mountain Airport", "type": "small_airport", "iso_country": "US", "municipality": "Hillsville", "iata_code": "", "icao_code": ""}, "geometry": {"type": "Point", "coordinates": [-80.49949645996094, 36.663299560546875]}}, {"type": "Feature", "properties": {"id": "6570", "ident": "00W", "name": "Lower Granite State Airport", "type": "small_airport", "iso_country": "US", "municipality": "Colfax", "iata_code": "", "icao_code": ""}, "geometry": {"type": "Point", "coordinates": [-117.441933, 46.672884]}}, {"type": "Feature", "properties": {"id": "6571", "ident": "00WA", "name": "Howell Airport", "type": "small_airport", "iso_country": "US", "municipality": "Longbranch", "iata_code": "", "icao_code": ""}, "geometry": {"type": "Point", "coordinates": [-122.77200317382812, 47.17839813232422]}}, {"type": "Feature", "properties": {"id": "6572", "ident": "00WI", "name": "Northern Lite Airport", "type": "small_airport", "iso_country": "US", "municipality": "Waupaca", "iata_code": "", "icao_code": ""}, "geometry": {"type": "Point", "coordinates": [-89.05010223388672, 44.304298400878906]}}, {"type": "Feature", "properties": {"id": "6573", "ident": "00WN", "name": "Hawks Run Airport", "type": "small_airport", "iso_country": "US", "municipality": "Asotin", "iata_code": "", "icao_code": ""}, "geometry": {"type": "Point", "coordinates": [-117.2490005493164, 46.25]}}, {"type": "Feature", "properties": {"id": "6574", "ident": "00WV", "name": "Lazy J. Aerodrome", "type": "small_airport", "iso_country": "US", "municipality": "Beverly", "iata_code": "", "icao_code": ""}, "geometry": {"type": "Point", "coordinates": [-79.86609649658203, 38.82889938354492]}}, {"type": "Feature", "properties": {"id": "322300", "ident": "00WY", "name": "Mountain View Regional Hospital Heliport", "type": "heliport", "iso_country": "US", "municipality": "Casper", "iata_code": "", "icao_code": ""}, "geometry": {"type": "Point", "coordinates": [-106.224443, 42.840361]}}, {"type": "Feature", "properties": {"id": "525140", "ident": "00XA", "name": "Weeski Ranch Airport", "type": "small_airport", "iso_country": "US", "municipality": "", "iata_code": "", "icao_code": ""}, "geometry": {"type": "Point", "coordinates": [-96.01417, 30.224]}}, {"type": "Feature", "properties": {"id": "6576", "ident": "01A", "name": "Purkeypile Airport", "type": "small_airport", "iso_country": "US", "municipality": "Purkeypile", "iata_code": "", "icao_code": ""}, "geometry": {"type": "Point", "coordinates": [-152.269722, 62.940833]}}, {"type": "Feature", "properties": {"id": "6577", "ident": "01AK", "name": "Providence Seward Medical Center Heliport", "type": "heliport", "iso_country": "US", "municipality": "Seward", "iata_code": "", "icao_code": ""}, "geometry": {"type": "Point", "coordinates": [-149.446249008, 60.105873975399994]}}, {"type": "Feature", "properties": {"id": "6578", "ident": "01AL", "name": "Ware Island Airport", "type": "small_airport", "iso_country": "US", "municipality": "Clanton", "iata_code": "", "icao_code": ""}, "geometry": {"type": "Point", "coordinates": [-86.51390075683594, 32.94599914550781]}}, {"type": "Feature", "properties": {"id": "356168", "ident": "01AN", "name": "McHone Heights Airport", "type": "small_airport", "iso_country": "US", "municipality": "Wasilla", "iata_code": "", "icao_code": ""}, "geometry": {"type": "Point", "coordinates": [-149.339025, 61.649095]}}, {"type": "Feature", "properties": {"id": "6579", "ident": "01AR", "name": "DeQueen Medical Center Heliport", "type": "heliport", "iso_country": "US", "municipality": "DeQueen", "iata_code": "", "icao_code": ""}, "geometry": {"type": "Point", "coordinates": [-94.354023, 34.047456]}}, {"type": "Feature", "properties": {"id": "6580", "ident": "01AZ", "name": "Yat Heliport", "type": "heliport", "iso_country": "US", "municipality": "Camp Verde", "iata_code": "", "icao_code": ""}, "geometry": {"type": "Point", "coordinates": [-111.8609, 34.607406]}}, {"type": "Feature", "properties": {"id": "6582", "ident": "01CA", "name": "SCE Lugo Substation Heliport", "type": "heliport", "iso_country": "US", "municipality": "Hesperia", "iata_code": "", "icao_code": ""}, "geometry": {"type": "Point", "coordinates": [-117.370059, 34.368241]}}, {"type": "Feature", "properties": {"id": "6583", "ident": "01CL", "name": "Swansboro Country Airport", "type": "small_airport", "iso_country": "US", "municipality": "Placerville", "iata_code": "", "icao_code": ""}, "geometry": {"type": "Point", "coordinates": [-120.734001, 38.7999]}}, {"type": "Feature", "properties": {"id": "6585", "ident": "01CO", "name": "St Vincent General Hospital Heliport", "type": "heliport", "iso_country": "US", "municipality": "Leadville", "iata_code": "", "icao_code": ""}, "geometry": {"type": "Point", "coordinates": [-106.24600219726562, 39.24530029296875]}}, {"type": "Feature", "properties": {"id": "6586", "ident": "01CT", "name": "Berlin Fairgrounds Heliport", "type": "heliport", "iso_country": "US", "municipality": "Berlin", "iata_code": "", "icao_code": ""}, "geometry": {"type": "Point", "coordinates": [-72.72750091552734, 41.62730026245117]}}, {"type": "Feature", "properties": {"id": "6587", "ident": "01FA", "name": "Rybolt Ranch Airport", "type": "small_airport", "iso_country": "US", "municipality": "Orlando", "iata_code": "", "icao_code": ""}, "geometry": {"type": "Point", "coordinates": [-81.14420318603516, 28.589399337768555]}}, {"type": "Feature", "properties": {"id": "6588", "ident": "01FD", "name": "Advent Health Altamonte Springs Heliport", "type": "heliport", "iso_country": "US", "municipality": "Altamonte Springs", "iata_code": "", "icao_code": ""}, "geometry": {"type": "Point", "coordinates": [-81.3697, 28.666639]}}, {"type": "Feature", "properties": {"id": "6589", "ident": "01FL", "name": "Cedar Knoll Flying Ranch Airport", "type": "small_airport", "iso_country": "US", "municipality": "Geneva", "iata_code": "", "icao_code": ""}, "geometry": {"type": "Point", "coordinates": [-81.1592025756836, 28.78190040588379]}}, {"type": "Feature", "properties": {"id": "6590", "ident": "01GA", "name": "Medical Center Heliport", "type": "heliport", "iso_country": "US", "municipality": "Columbus", "iata_code": "", "icao_code": ""}, "geometry": {"type": "Point", "coordinates": [-84.9791030883789, 32.47930145263672]}}, {"type": "Feature", "properties": {"id": "6591", "ident": "01GE", "name": "The Farm Airport", "type": "small_airport", "iso_country": "US", "municipality": "Wrightsville", "iata_code": "", "icao_code": ""}, "geometry": {"type": "Point", "coordinates": [-82.771055, 32.675106]}}, {"type": "Feature", "properties": {"id": "6530", "ident": "01ID", "name": "Lava Hot Springs Airport", "type": "small_airport", "iso_country": "US", "municipality": "Lava Hot Springs", "iata_code": "", "icao_code": ""}, "geometry": {"type": "Point", "coordinates": [-112.031998, 42.6082]}}, {"type": "Feature", "properties": {"id": "6593", "ident": "01II", "name": "Myers Field", "type": "small_airport", "iso_country": "US", "municipality": "Lizton", "iata_code": "", "icao_code": ""}, "geometry": {"type": "Point", "coordinates": [-86.50669860839844, 39.8849983215332]}}, {"type": "Feature", "properties": {"id": "6594", "ident": "01IL", "name": "Hoopeston Community Memorial Hospital Heliport", "type": "heliport", "iso_country": "US", "municipality": "Hoopeston", "iata_code": "", "icao_code": ""}, "geometry": {"type": "Point", "coordinates": [-87.65950012207031, 40.45859909057617]}}, {"type": "Feature", "properties": {"id": "6595", "ident": "01IN", "name": "Community Hospital Heliport", "type": "heliport", "iso_country": "US", "municipality": "Anderson", "iata_code": "", "icao_code": ""}, "geometry": {"type": "Point", "coordinates": [-85.69580078125, 40.13090133666992]}}, {"type": "Feature", "properties": {"id": "6596", "ident": "01IS", "name": "William E. Koenig Airport", "type": "small_airport", "iso_country": "US", "municipality": "Dow", "iata_code": "", "icao_code": ""}, "geometry": {"type": "Point", "coordinates": [-90.31819915771484, 39.01620101928711]}}, {"type": "Feature", "properties": {"id": "6597", "ident": "01J", "name": "Hilliard Airpark", "type": "small_airport", "iso_country": "US", "municipality": "Hilliard", "iata_code": "", "icao_code": ""}, "geometry": {"type": "Point", "coordinates": [-81.906346, 30.685568]}}, {"type": "Feature", "properties": {"id": "6598", "ident": "01K", "name": "Caldwell Municipal Airport", "type": "small_airport", "iso_country": "US", "municipality": "Caldwell", "iata_code": "", "icao_code": ""}, "geometry": {"type": "Point", "coordinates": [-97.58533, 37.036132]}}, {"type": "Feature", "properties": {"id": "6599", "ident": "01KS", "name": "Flying N Ranch Airport", "type": "small_airport", "iso_country": "US", "municipality": "Lost Springs", "iata_code": "", "icao_code": ""}, "geometry": {"type": "Point", "coordinates": [-97.00330352783203, 38.54059982299805]}}, {"type": "Feature", "properties": {"id": "6600", "ident": "01KY", "name": "Lourdes Hospital Heliport", "type": "heliport", "iso_country": "US", "municipality": "Paducah", "iata_code": "", "icao_code": ""}, "geometry": {"type": "Point", "coordinates": [-88.64689636230469, 37.051700592041016]}}, {"type": "Feature", "properties": {"id": "6601", "ident": "01LA", "name": "Barham Airport", "type": "small_airport", "iso_country": "US", "municipality": "Oak Ridge", "iata_code": "", "icao_code": ""}, "geometry": {"type": "Point", "coordinates": [-91.77369689941406, 32.638999938964844]}}, {"type": "Feature", "properties": {"id": "6602", "ident": "01LL", "name": "Schumaier Restricted Landing Area", "type": "small_airport", "iso_country": "US", "municipality": "Pinckneyville", "iata_code": "", "icao_code": ""}, "geometry": {"type": "Point", "coordinates": [-89.46389770507812, 38.12580108642578]}}, {"type": "Feature", "properties": {"id": "6603", "ident": "01LS", "name": "Country Breeze Airport", "type": "small_airport", "iso_country": "US", "municipality": "Slaughter", "iata_code": "", "icao_code": ""}, "geometry": {"type": "Point", "coordinates": [-91.077372, 30.722478]}}, {"type": "Feature", "properties": {"id": "6604", "ident": "01MA", "name": "Compaq Andover Heliport", "type": "heliport", "iso_country": "US", "municipality": "Andover", "iata_code": "", "icao_code": ""}, "geometry": {"type": "Point", "coordinates": [-71.18009948730469, 42.625099182128906]}}, {"type": "Feature", "properties": {"id": "6605", "ident": "01MD", "name": "Annapolis Seaplane Base", "type": "seaplane_base", "iso_country": "US", "municipality": "Annapolis", "iata_code": "", "icao_code": ""}, "geometry": {"type": "Point", "coordinates": [-76.456001, 38.999199]}}, {"type": "Feature", "properties": {"id": "6606", "ident": "01ME", "name": "Saint Peter's Seaplane Base", "type": "seaplane_base", "iso_country": "US", "municipality": "Portage Lake", "iata_code": "", "icao_code": ""}, "geometry": {"type": "Point", "coordinates": [-68.50029754638672, 46.778900146484375]}}, {"type": "Feature", "properties": {"id": "6607", "ident": "01MI", "name": "Flow Through Terminal Heliport", "type": "heliport", "iso_country": "US", "municipality": "Flint", "iata_code": "", "icao_code": ""}, "geometry": {"type": "Point", "coordinates": [-83.67970275878906, 43.04949951171875]}}, {"type": "Feature", "properties": {"id": "6608", "ident": "01MN", "name": "Barnes Seaplane Base", "type": "seaplane_base", "iso_country": "US", "municipality": "Cook", "iata_code": "", "icao_code": ""}, "geometry": {"type": "Point", "coordinates": [-92.55740356445312, 47.899600982666016]}}, {"type": "Feature", "properties": {"id": "6609", "ident": "01MO", "name": "Highway Patrol Troop C Headquarters Heliport", "type": "heliport", "iso_country": "US", "municipality": "Town and Country", "iata_code": "", "icao_code": ""}, "geometry": {"type": "Point", "coordinates": [-90.48429870605469, 38.641700744628906]}}, {"type": "Feature", "properties": {"id": "6610", "ident": "01MT", "name": "Crystal Lakes Resort Airport", "type": "small_airport", "iso_country": "US", "municipality": "Fortine", "iata_code": "", "icao_code": ""}, "geometry": {"type": "Point", "coordinates": [-114.87999725341797, 48.789100646972656]}}, {"type": "Feature", "properties": {"id": "356169", "ident": "01MU", "name": "NWMC - Houghton Heliport", "type": "heliport", "iso_country": "US", "municipality": "Tucson", "iata_code": "", "icao_code": ""}, "geometry": {"type": "Point", "coordinates": [-110.775142, 32.196747]}}, {"type": "Feature", "properties": {"id": "6611", "ident": "01NC", "name": "Topsail Airpark", "type": "small_airport", "iso_country": "US", "municipality": "Holly Ridge", "iata_code": "", "icao_code": ""}, "geometry": {"type": "Point", "coordinates": [-77.5813980102539, 34.47529983520508]}}, {"type": "Feature", "properties": {"id": "6613", "ident": "01NH", "name": "Moore Airfield", "type": "small_airport", "iso_country": "US", "municipality": "Canaan", "iata_code": "", "icao_code": ""}, "geometry": {"type": "Point", "coordinates": [-72.086998, 43.6445]}}, {"type": "Feature", "properties": {"id": "6614", "ident": "01NJ", "name": "Albert Guido Memorial Heliport", "type": "heliport", "iso_country": "US", "municipality": "Newark", "iata_code": "", "icao_code": ""}, "geometry": {"type": "Point", "coordinates": [-74.136128, 40.739956]}}, {"type": "Feature", "properties": {"id": "45537", "ident": "01NM", "name": "Champion Ranch Airport", "type": "small_airport", "iso_country": "US", "municipality": "Lake Arthur", "iata_code": "", "icao_code": ""}, "geometry": {"type": "Point", "coordinates": [-104.540278, 33.008611]}}, {"type": "Feature", "properties": {"id": "506122", "ident": "01NR", "name": "McGee 01 Heliport", "type": "heliport", "iso_country": "US", "municipality": "Wilmington", "iata_code": "", "icao_code": ""}, "geometry": {"type": "Point", "coordinates": [-77.919917, 34.196264]}}, {"type": "Feature", "properties": {"id": "6615", "ident": "01NV", "name": "Lantana Ranch Airport", "type": "small_airport", "iso_country": "US", "municipality": "Yerington", "iata_code": "", "icao_code": ""}, "geometry": {"type": "Point", "coordinates": [-119.0270004272461, 38.76390075683594]}}, {"type": "Feature", "properties": {"id": "6616", "ident": "01NY", "name": "Vassar Hospital Heliport", "type": "heliport", "iso_country": "US", "municipality": "Poughkeepsie", "iata_code": "", "icao_code": ""}, "geometry": {"type": "Point", "coordinates": [-73.93683, 41.692415]}}, {"type": "Feature", "properties": {"id": "347920", "ident": "01OH", "name": "Atrium Medical Center Heliport", "type": "heliport", "iso_country": "US", "municipality": "Middletown", "iata_code": "", "icao_code": ""}, "geometry": {"type": "Point", "coordinates": [-84.313851, 39.497455]}}, {"type": "Feature", "properties": {"id": "6617", "ident": "01OI", "name": "Avita Health System Galion Hospital Heliport", "type": "heliport", "iso_country": "US", "municipality": "Galion", "iata_code": "", "icao_code": ""}, "geometry": {"type": "Point", "coordinates": [-82.802022, 40.730267]}}, {"type": "Feature", "properties": {"id": "345166", "ident": "01OL", "name": "Spring Creek Ranch East Airport", "type": "small_airport", "iso_country": "US", "municipality": "Tishomingo", "iata_code": "", "icao_code": ""}, "geometry": {"type": "Point", "coordinates": [-96.690833, 34.391667]}}, {"type": "Feature", "properties": {"id": "6621", "ident": "01PN", "name": "Bierly(Personal Use) Airport", "type": "small_airport", "iso_country": "US", "municipality": "Bellefonte", "iata_code": "", "icao_code": ""}, "geometry": {"type": "Point", "coordinates": [-77.73889923095703, 40.930599212646484]}}, {"type": "Feature", "properties": {"id": "6622", "ident": "01PS", "name": "Nort's Resort Airport", "type": "small_airport", "iso_country": "US", "municipality": "Meshoppen", "iata_code": "", "icao_code": ""}, "geometry": {"type": "Point", "coordinates": [-76.02960205078125, 41.59590148925781]}}, {"type": "Feature", "properties": {"id": "6623", "ident": "01SC", "name": "York Airport", "type": "small_airport", "iso_country": "US", "municipality": "York", "iata_code": "", "icao_code": ""}, "geometry": {"type": "Point", "coordinates": [-81.25279998779297, 35.032100677490234]}}, {"type": "Feature", "properties": {"id": "6624", "ident": "01TA", "name": "Thirty Thirty Matlock Office Center Heliport", "type": "heliport", "iso_country": "US", "municipality": "Arlington", "iata_code": "", "icao_code": ""}, "geometry": {"type": "Point", "coordinates": [-97.11579895019531, 32.69419860839844]}}, {"type": "Feature", "properties": {"id": "6625", "ident": "01TE", "name": "Smith Field", "type": "small_airport", "iso_country": "US", "municipality": "Forney", "iata_code": "", "icao_code": ""}, "geometry": {"type": "Point", "coordinates": [-96.428001, 32.737598]}}, {"type": "Feature", "properties": {"id": "6626", "ident": "01TN", "name": "Colonial Air Park", "type": "small_airport", "iso_country": "US", "municipality": "Collierville", "iata_code": "", "icao_code": ""}, "geometry": {"type": "Point", "coordinates": [-89.73059844970703, 34.99589920043945]}}, {"type": "Feature", "properties": {"id": "340858", "ident": "01TT", "name": "Clute Fire & EMS Station #1 Heliport", "type": "heliport", "iso_country": "US", "municipality": "Clute", "iata_code": "", "icao_code": ""}, "geometry": {"type": "Point", "coordinates": [-95.402119, 29.012067]}}, {"type": "Feature", "properties": {"id": "6629", "ident": "01U", "name": "Duckwater Airport", "type": "small_airport", "iso_country": "US", "municipality": "Duckwater", "iata_code": "", "icao_code": ""}, "geometry": {"type": "Point", "coordinates": [-115.634987, 38.849785]}}, {"type": "Feature", "properties": {"id": "6630", "ident": "01UT", "name": "La Sal Junction Airport", "type": "small_airport", "iso_country": "US", "municipality": "La Sal", "iata_code": "", "icao_code": ""}, "geometry": {"type": "Point", "coordinates": [-109.39600372314453, 38.30830001831055]}}, {"type": "Feature", "properties": {"id": "6631", "ident": "01VA", "name": "Pickles Airport", "type": "small_airport", "iso_country": "US", "municipality": "Berryville", "iata_code": "", "icao_code": ""}, "geometry": {"type": "Point", "coordinates": [-77.9250030518, 39.125]}}, {"type": "Feature", "properties": {"id": "6632", "ident": "01WA", "name": "Willapa Harbor Heliport", "type": "heliport", "iso_country": "US", "municipality": "South Bend", "iata_code": "", "icao_code": ""}, "geometry": {"type": "Point", "coordinates": [-123.81199645996094, 46.66320037841797]}}, {"type": "Feature", "properties": {"id": "6633", "ident": "01WI", "name": "Prehn Cranberry Company Airport", "type": "closed", "iso_country": "US", "municipality": "Tomah", "iata_code": "", "icao_code": ""}, "geometry": {"type": "Point", "coordinates": [-90.38993, 44.009328]}}, {"type": "Feature", "properties": {"id": "6634", "ident": "01WN", "name": "Whidbey General Hospital Heliport", "type": "heliport", "iso_country": "US", "municipality": "Coupeville", "iata_code": "", "icao_code": ""}, "geometry": {"type": "Point", "coordinates": [-122.68499755859375, 48.213401794433594]}}, {"type": "Feature", "properties": {"id": "45900", "ident": "01WT", "name": "Odyssey Heliport", "type": "heliport", "iso_country": "US", "municipality": "Renton", "iata_code": "", "icao_code": ""}, "geometry": {"type": "Point", "coordinates": [-122.210908, 47.518178]}}, {"type": "Feature", "properties": {"id": "6635", "ident": "01WY", "name": "Keyhole Airport", "type": "small_airport", "iso_country": "US", "municipality": "Pine Haven", "iata_code": "", "icao_code": ""}, "geometry": {"type": "Point", "coordinates": [-104.8106, 44.348312]}}, {"type": "Feature", "properties": {"id": "46288", "ident": "01XA", "name": "Ascension Seton Hays Heliport", "type": "heliport", "iso_country": "US", "municipality": "Kyle", "iata_code": "", "icao_code": ""}, "geometry": {"type": "Point", "coordinates": [-97.853333, 30.007222]}}, {"type": "Feature", "properties": {"id": "6636", "ident": "01XS", "name": "Meadowood Ranch Heliport", "type": "heliport", "iso_country": "US", "municipality": "Athens", "iata_code": "", "icao_code": ""}, "geometry": {"type": "Point", "coordinates": [-95.74549865722656, 32.020198822021484]}}, {"type": "Feature", "properties": {"id": "335815", "ident": "02AA", "name": "Barefoot Airport", "type": "small_airport", "iso_country": "US", "municipality": "Big Lake", "iata_code": "", "icao_code": ""}, "geometry": {"type": "Point", "coordinates": [-149.912825, 61.506147]}}, {"type": "Feature", "properties": {"id": "6637", "ident": "02AK", "name": "Rustic Wilderness Airport", "type": "small_airport", "iso_country": "US", "municipality": "Willow", "iata_code": "", "icao_code": ""}, "geometry": {"type": "Point", "coordinates": [-150.097626, 61.876907]}}, {"type": "Feature", "properties": {"id": "6638", "ident": "02AL", "name": "Bass Field", "type": "small_airport", "iso_country": "US", "municipality": "Foley", "iata_code": "", "icao_code": ""}, "geometry": {"type": "Point", "coordinates": [-87.76439666748047, 30.37150001525879]}}, {"type": "Feature", "properties": {"id": "529870", "ident": "02AN", "name": "Emerald Ridge Airport", "type": "small_airport", "iso_country": "US", "municipality": "Homer", "iata_code": "", "icao_code": ""}, "geometry": {"type": "Point", "coordinates": [-151.295869, 59.704223]}}, {"type": "Feature", "properties": {"id": "6641", "ident": "02CA", "name": "Swepi Beta Platform Ellen Heliport", "type": "heliport", "iso_country": "US", "municipality": "Huntington Beach", "iata_code": "", "icao_code": ""}, "geometry": {"type": "Point", "coordinates": [-118.12899780273438, 33.58250045776367]}}, {"type": "Feature", "properties": {"id": "6642", "ident": "02CD", "name": "Shannon Field", "type": "small_airport", "iso_country": "US", "municipality": "Clarksdale", "iata_code": "", "icao_code": ""}, "geometry": {"type": "Point", "coordinates": [-90.52400207519531, 34.129600524902344]}}, {"type": "Feature", "properties": {"id": "6643", "ident": "02CL", "name": "Conover Air Lodge Airport", "type": "small_airport", "iso_country": "US", "municipality": "Frazier Park", "iata_code": "", "icao_code": ""}, "geometry": {"type": "Point", "coordinates": [-119.058998, 34.761101]}}, {"type": "Feature", "properties": {"id": "6644", "ident": "02CO", "name": "Mc Cullough Airport", "type": "small_airport", "iso_country": "US", "municipality": "Monte Vista", "iata_code": "", "icao_code": ""}, "geometry": {"type": "Point", "coordinates": [-106.04699707, 37.64329910279999]}}, {"type": "Feature", "properties": {"id": "6645", "ident": "02CT", "name": "Strangers Point Heliport", "type": "heliport", "iso_country": "US", "municipality": "Ellington", "iata_code": "", "icao_code": ""}, "geometry": {"type": "Point", "coordinates": [-72.44450378417969, 41.91960144042969]}}, {"type": "Feature", "properties": {"id": "6646", "ident": "02FA", "name": "Osborn Airfield", "type": "small_airport", "iso_country": "US", "municipality": "Groveland", "iata_code": "", "icao_code": ""}, "geometry": {"type": "Point", "coordinates": [-81.874802, 28.526699]}}, {"type": "Feature", "properties": {"id": "341544", "ident": "02FD", "name": "Triple R Ranch Airport", "type": "small_airport", "iso_country": "US", "municipality": "Baker", "iata_code": "", "icao_code": ""}, "geometry": {"type": "Point", "coordinates": [-86.635555, 30.950976]}}, {"type": "Feature", "properties": {"id": "6648", "ident": "02GA", "name": "Doug Bolton Field", "type": "small_airport", "iso_country": "US", "municipality": "Commerce", "iata_code": "", "icao_code": ""}, "geometry": {"type": "Point", "coordinates": [-83.42900085449219, 34.202598571777344]}}, {"type": "Feature", "properties": {"id": "6649", "ident": "02GE", "name": "Etowah Fields Airport", "type": "small_airport", "iso_country": "US", "municipality": "Euharlee", "iata_code": "", "icao_code": ""}, "geometry": {"type": "Point", "coordinates": [-84.92440032958984, 34.17530059814453]}}, {"type": "Feature", "properties": {"id": "6650", "ident": "02HI", "name": "K3 Helipad Heliport", "type": "heliport", "iso_country": "US", "municipality": "Honolulu", "iata_code": "", "icao_code": ""}, "geometry": {"type": "Point", "coordinates": [-157.94789, 21.35839]}}, {"type": "Feature", "properties": {"id": "6651", "ident": "02IA", "name": "Boone County Hospital Heliport", "type": "heliport", "iso_country": "US", "municipality": "Boone", "iata_code": "", "icao_code": ""}, "geometry": {"type": "Point", "coordinates": [-93.87799835205078, 42.05609893798828]}}, {"type": "Feature", "properties": {"id": "6652", "ident": "02ID", "name": "Morgan Ranch Airport", "type": "small_airport", "iso_country": "US", "municipality": "Cascade", "iata_code": "", "icao_code": ""}, "geometry": {"type": "Point", "coordinates": [-115.30500030517578, 44.55550003051758]}}, {"type": "Feature", "properties": {"id": "6653", "ident": "02II", "name": "King Ultralightport", "type": "small_airport", "iso_country": "US", "municipality": "Westfield", "iata_code": "", "icao_code": ""}, "geometry": {"type": "Point", "coordinates": [-86.21050262451172, 40.06230163574219]}}, {"type": "Feature", "properties": {"id": "6654", "ident": "02IN", "name": "Diamond P. Field", "type": "small_airport", "iso_country": "US", "municipality": "Muncie", "iata_code": "", "icao_code": ""}, "geometry": {"type": "Point", "coordinates": [-85.54080200195312, 40.208900451660156]}}, {"type": "Feature", "properties": {"id": "6655", "ident": "02IS", "name": "Condell Medical Center Heliport", "type": "heliport", "iso_country": "US", "municipality": "Libertyville", "iata_code": "", "icao_code": ""}, "geometry": {"type": "Point", "coordinates": [-87.9572982788086, 42.274600982666016]}}, {"type": "Feature", "properties": {"id": "6656", "ident": "02KS", "name": "JMJ Landing Airport", "type": "small_airport", "iso_country": "US", "municipality": "Saint Marys", "iata_code": "", "icao_code": ""}, "geometry": {"type": "Point", "coordinates": [-96.057072, 39.221416]}}, {"type": "Feature", "properties": {"id": "327110", "ident": "02KT", "name": "St Claire Healthcare Heliport", "type": "heliport", "iso_country": "US", "municipality": "Morehead", "iata_code": "", "icao_code": ""}, "geometry": {"type": "Point", "coordinates": [-83.443319, 38.181441]}}, {"type": "Feature", "properties": {"id": "6657", "ident": "02KY", "name": "Boone National Guard Heliport", "type": "heliport", "iso_country": "US", "municipality": "Frankfort", "iata_code": "", "icao_code": ""}, "geometry": {"type": "Point", "coordinates": [-84.906442, 38.190282]}}, {"type": "Feature", "properties": {"id": "6658", "ident": "02LA", "name": "Louisiana State Police Troop G Heliport", "type": "heliport", "iso_country": "US", "municipality": "Bossier City", "iata_code": "", "icao_code": ""}, "geometry": {"type": "Point", "coordinates": [-93.659939, 32.531491]}}, {"type": "Feature", "properties": {"id": "6659", "ident": "02LS", "name": "Windy Hill Heliport", "type": "heliport", "iso_country": "US", "municipality": "Broussard", "iata_code": "", "icao_code": ""}, "geometry": {"type": "Point", "coordinates": [-91.91899871826172, 30.148300170898438]}}, {"type": "Feature", "properties": {"id": "6660", "ident": "02MA", "name": "Cuttyhunk Heliport", "type": "heliport", "iso_country": "US", "municipality": "Cuttyhunk", "iata_code": "", "icao_code": ""}, "geometry": {"type": "Point", "coordinates": [-70.927002, 41.419601]}}, {"type": "Feature", "properties": {"id": "322099", "ident": "02MD", "name": "Garner Field", "type": "small_airport", "iso_country": "US", "municipality": "Brandywine", "iata_code": "", "icao_code": ""}, "geometry": {"type": "Point", "coordinates": [-76.709739, 38.672544]}}, {"type": "Feature", "properties": {"id": "6661", "ident": "02ME", "name": "Nadeau's Airfield", "type": "small_airport", "iso_country": "US", "municipality": "Acton", "iata_code": "", "icao_code": ""}, "geometry": {"type": "Point", "coordinates": [-70.930685, 43.537467]}}, {"type": "Feature", "properties": {"id": "6662", "ident": "02MI", "name": "Fairplains Airpark", "type": "small_airport", "iso_country": "US", "municipality": "Greenville", "iata_code": "", "icao_code": ""}, "geometry": {"type": "Point", "coordinates": [-85.14849853515625, 43.157100677490234]}}, {"type": "Feature", "properties": {"id": "6664", "ident": "02MO", "name": "Troy Airpark", "type": "small_airport", "iso_country": "US", "municipality": "Troy", "iata_code": "", "icao_code": ""}, "geometry": {"type": "Point", "coordinates": [-91.03350067138672, 39.04999923706055]}}, {"type": "Feature", "properties": {"id": "6665", "ident": "02MS", "name": "Watts Field", "type": "small_airport", "iso_country": "US", "municipality": "Rochdale", "iata_code": "", "icao_code": ""}, "geometry": {"type": "Point", "coordinates": [-90.846131, 34.095701]}}, {"type": "Feature", "properties": {"id": "6668", "ident": "02NE", "name": "Benes Service Airport", "type": "small_airport", "iso_country": "US", "municipality": "Valparaiso", "iata_code": "", "icao_code": ""}, "geometry": {"type": "Point", "coordinates": [-96.90450286865234, 41.074501037597656]}}, {"type": "Feature", "properties": {"id": "6669", "ident": "02NH", "name": "Iroquois Landing Seaplane Base", "type": "seaplane_base", "iso_country": "US", "municipality": "Dummer", "iata_code": "", "icao_code": ""}, "geometry": {"type": "Point", "coordinates": [-71.21910095214844, 44.657100677490234]}}, {"type": "Feature", "properties": {"id": "6670", "ident": "02NJ", "name": "Penske Heliport", "type": "heliport", "iso_country": "US", "municipality": "Piscataway", "iata_code": "", "icao_code": ""}, "geometry": {"type": "Point", "coordinates": [-74.46710205078125, 40.55730056762695]}}, {"type": "Feature", "properties": {"id": "526225", "ident": "02NM", "name": "FFR Animas Landing Strip", "type": "small_airport", "iso_country": "US", "municipality": "Animas", "iata_code": "", "icao_code": ""}, "geometry": {"type": "Point", "coordinates": [-108.870735, 32.09071]}}, {"type": "Feature", "properties": {"id": "506036", "ident": "02NR", "name": "McGee 02 Heliport", "type": "heliport", "iso_country": "US", "municipality": "Greenville", "iata_code": "", "icao_code": ""}, "geometry": {"type": "Point", "coordinates": [-77.377372, 35.592197]}}, {"type": "Feature", "properties": {"id": "6671", "ident": "02NV", "name": "Paiute Meadows Airport", "type": "small_airport", "iso_country": "US", "municipality": "Winnemucca", "iata_code": "", "icao_code": ""}, "geometry": {"type": "Point", "coordinates": [-118.926709, 41.299551]}}, {"type": "Feature", "properties": {"id": "6672", "ident": "02NY", "name": "Hansen Heliport", "type": "heliport", "iso_country": "US", "municipality": "Durhamville", "iata_code": "", "icao_code": ""}, "geometry": {"type": "Point", "coordinates": [-75.65550231933594, 43.132598876953125]}}, {"type": "Feature", "properties": {"id": "6673", "ident": "02OH", "name": "Zimmerman Airport", "type": "small_airport", "iso_country": "US", "municipality": "Fremont", "iata_code": "", "icao_code": ""}, "geometry": {"type": "Point", "coordinates": [-83.08329772949219, 41.376399993896484]}}, {"type": "Feature", "properties": {"id": "6674", "ident": "02OI", "name": "Murtha Airport", "type": "small_airport", "iso_country": "US", "municipality": "Conneaut", "iata_code": "", "icao_code": ""}, "geometry": {"type": "Point", "coordinates": [-80.56539916992188, 41.801998138427734]}}, {"type": "Feature", "properties": {"id": "337183", "ident": "02OL", "name": "War Veterans Colony Heliport", "type": "heliport", "iso_country": "US", "municipality": "Wilburton", "iata_code": "", "icao_code": ""}, "geometry": {"type": "Point", "coordinates": [-95.307727, 34.811412]}}, {"type": "Feature", "properties": {"id": "6676", "ident": "02OR", "name": "Rowena Dell Airport", "type": "small_airport", "iso_country": "US", "municipality": "The Dalles", "iata_code": "", "icao_code": ""}, "geometry": {"type": "Point", "coordinates": [-121.31600189208984, 45.68149948120117]}}, {"type": "Feature", "properties": {"id": "6677", "ident": "02P", "name": "Stottle Memorial Heliport", "type": "heliport", "iso_country": "US", "municipality": "Honey Grove", "iata_code": "", "icao_code": ""}, "geometry": {"type": "Point", "coordinates": [-77.556602, 40.403596]}}, {"type": "Feature", "properties": {"id": "6678", "ident": "02PA", "name": "Lag III Heliport", "type": "heliport", "iso_country": "US", "municipality": "Monroeville", "iata_code": "", "icao_code": ""}, "geometry": {"type": "Point", "coordinates": [-79.769997, 40.438301]}}, {"type": "Feature", "properties": {"id": "6679", "ident": "02PN", "name": "Peco Berwyn Heliport", "type": "heliport", "iso_country": "US", "municipality": "Berwyn", "iata_code": "", "icao_code": ""}, "geometry": {"type": "Point", "coordinates": [-75.4552001953125, 40.06959915161133]}}, {"type": "Feature", "properties": {"id": "6680", "ident": "02PR", "name": "Cuylers Airport", "type": "small_airport", "iso_country": "PR", "municipality": "Vega Baja", "iata_code": "", "icao_code": ""}, "geometry": {"type": "Point", "coordinates": [-66.363773, 18.464924]}}, {"type": "Feature", "properties": {"id": "574181", "ident": "02RI", "name": "Miramar Residence Heliport", "type": "heliport", "iso_country": "US", "municipality": "Newport", "iata_code": "", "icao_code": ""}, "geometry": {"type": "Point", "coordinates": [-71.304886, 41.457931]}}, {"type": "Feature", "properties": {"id": "6682", "ident": "02SC", "name": "Harpers Airport", "type": "small_airport", "iso_country": "US", "municipality": "Estill", "iata_code": "", "icao_code": ""}, "geometry": {"type": "Point", "coordinates": [-81.225872, 32.760211]}}, {"type": "Feature", "properties": {"id": "6683", "ident": "02T", "name": "Wise River Airport", "type": "small_airport", "iso_country": "US", "municipality": "Wise River", "iata_code": "", "icao_code": ""}, "geometry": {"type": "Point", "coordinates": [-112.98200225830078, 45.769100189208984]}}, {"type": "Feature", "properties": {"id": "6684", "ident": "02TA", "name": "Matagorda Shore Facility Heliport", "type": "heliport", "iso_country": "US", "municipality": "Matagorda", "iata_code": "", "icao_code": ""}, "geometry": {"type": "Point", "coordinates": [-95.875813, 28.722177]}}, {"type": "Feature", "properties": {"id": "6685", "ident": "02TE", "name": "Baylor Medical Center Heliport", "type": "heliport", "iso_country": "US", "municipality": "Waxahachie", "iata_code": "", "icao_code": ""}, "geometry": {"type": "Point", "coordinates": [-96.86419677734375, 32.39540100097656]}}, {"type": "Feature", "properties": {"id": "6686", "ident": "02TN", "name": "Ellis Field", "type": "small_airport", "iso_country": "US", "municipality": "Rockvale", "iata_code": "", "icao_code": ""}, "geometry": {"type": "Point", "coordinates": [-86.585521, 35.780355]}}, {"type": "Feature", "properties": {"id": "6689", "ident": "02UT", "name": "Lucin Airport", "type": "small_airport", "iso_country": "US", "municipality": "Lucin", "iata_code": "", "icao_code": ""}, "geometry": {"type": "Point", "coordinates": [-113.841019, 41.369336]}}, {"type": "Feature", "properties": {"id": "6690", "ident": "02VA", "name": "The Greenhouse Airport", "type": "small_airport", "iso_country": "US", "municipality": "Culpeper", "iata_code": "", "icao_code": ""}, "geometry": {"type": "Point", "coordinates": [-77.8572006225586, 38.435699462890625]}}, {"type": "Feature", "properties": {"id": "6691", "ident": "02VG", "name": "Northstar Aviation Heliport", "type": "heliport", "iso_country": "US", "municipality": "Bristol", "iata_code": "", "icao_code": ""}, "geometry": {"type": "Point", "coordinates": [-82.11669921875, 36.63880157470703]}}, {"type": "Feature", "properties": {"id": "6692", "ident": "02WA", "name": "Cawleys South Prairie Airport", "type": "small_airport", "iso_country": "US", "municipality": "South Prairie", "iata_code": "", "icao_code": ""}, "geometry": {"type": "Point", "coordinates": [-122.09400177001953, 47.15230178833008]}}, {"type": "Feature", "properties": {"id": "6693", "ident": "02WI", "name": "Beer Airport", "type": "small_airport", "iso_country": "US", "municipality": "Hudson", "iata_code": "", "icao_code": ""}, "geometry": {"type": "Point", "coordinates": [-92.65579986572266, 45.031898498535156]}}, {"type": "Feature", "properties": {"id": "6694", "ident": "02WN", "name": "Fowler Field", "type": "small_airport", "iso_country": "US", "municipality": "Tonasket", "iata_code": "", "icao_code": ""}, "geometry": {"type": "Point", "coordinates": [-119.31900024414062, 48.74580001831055]}}, {"type": "Feature", "properties": {"id": "330393", "ident": "02XA", "name": "JLS Farms Airport", "type": "small_airport", "iso_country": "US", "municipality": "Honey Grove", "iata_code": "", "icao_code": ""}, "geometry": {"type": "Point", "coordinates": [-95.882864, 33.591319]}}, {"type": "Feature", "properties": {"id": "325508", "ident": "03AA", "name": "Trapper T Heliport", "type": "heliport", "iso_country": "US", "municipality": "Palmer", "iata_code": "", "icao_code": ""}, "geometry": {"type": "Point", "coordinates": [-149.284527, 61.556055]}}, {"type": "Feature", "properties": {"id": "6696", "ident": "03AK", "name": "Joe Clouds Seaplane Base", "type": "seaplane_base", "iso_country": "US", "municipality": "Kenai", "iata_code": "", "icao_code": ""}, "geometry": {"type": "Point", "coordinates": [-151.13278198242188, 60.72722244262695]}}, {"type": "Feature", "properties": {"id": "6697", "ident": "03AL", "name": "Highland Medical Center Heliport", "type": "heliport", "iso_country": "US", "municipality": "Scottsboro", "iata_code": "", "icao_code": ""}, "geometry": {"type": "Point", "coordinates": [-86.046774, 34.662604]}}, {"type": "Feature", "properties": {"id": "6698", "ident": "03AR", "name": "Hscmh Heliport", "type": "heliport", "iso_country": "US", "municipality": "Malvern", "iata_code": "", "icao_code": ""}, "geometry": {"type": "Point", "coordinates": [-92.78849792480469, 34.357601165771484]}}, {"type": "Feature", "properties": {"id": "6699", "ident": "03AZ", "name": "Thompson International Aviation Airport", "type": "small_airport", "iso_country": "US", "municipality": "Hereford", "iata_code": "", "icao_code": ""}, "geometry": {"type": "Point", "coordinates": [-110.088087, 31.430971]}}, {"type": "Feature", "properties": {"id": "6700", "ident": "03CA", "name": "Grossmont Hospital Heliport", "type": "heliport", "iso_country": "US", "municipality": "La Mesa", "iata_code": "", "icao_code": ""}, "geometry": {"type": "Point", "coordinates": [-117.006952, 32.779484]}}, {"type": "Feature", "properties": {"id": "6702", "ident": "03FA", "name": "Lake Persimmon Airstrip", "type": "small_airport", "iso_country": "US", "municipality": "Lake Placid", "iata_code": "", "icao_code": ""}, "geometry": {"type": "Point", "coordinates": [-81.40809631347656, 27.353099822998047]}}, {"type": "Feature", "properties": {"id": "6704", "ident": "03FL", "name": "Ranger Heliport", "type": "closed", "iso_country": "US", "municipality": "West Palm Beach", "iata_code": "", "icao_code": ""}, "geometry": {"type": "Point", "coordinates": [-80.186561, 26.683716]}}, {"type": "Feature", "properties": {"id": "322717", "ident": "03GA", "name": "HIA Airport", "type": "small_airport", "iso_country": "US", "municipality": "Statesboro", "iata_code": "", "icao_code": ""}, "geometry": {"type": "Point", "coordinates": [-81.85509, 32.561626]}}, {"type": "Feature", "properties": {"id": "512948", "ident": "03GE", "name": "NGMC Lumpkin Hospital Heliport", "type": "heliport", "iso_country": "US", "municipality": "Dahlonega", "iata_code": "", "icao_code": ""}, "geometry": {"type": "Point", "coordinates": [-83.975058, 34.523153]}}, {"type": "Feature", "properties": {"id": "6707", "ident": "03ID", "name": "Flying Y Ranch Airport", "type": "small_airport", "iso_country": "US", "municipality": "Council", "iata_code": "", "icao_code": ""}, "geometry": {"type": "Point", "coordinates": [-116.531543, 44.793965]}}, {"type": "Feature", "properties": {"id": "6708", "ident": "03II", "name": "Davis Field Ultralightport", "type": "small_airport", "iso_country": "US", "municipality": "Mount Vernon", "iata_code": "", "icao_code": ""}, "geometry": {"type": "Point", "coordinates": [-87.7789001465, 37.9620018005]}}, {"type": "Feature", "properties": {"id": "6709", "ident": "03IL", "name": "Wix Airport", "type": "small_airport", "iso_country": "US", "municipality": "Monee", "iata_code": "", "icao_code": ""}, "geometry": {"type": "Point", "coordinates": [-87.81670379638672, 41.40230178833008]}}, {"type": "Feature", "properties": {"id": "6710", "ident": "03IN", "name": "Heinzman Airport", "type": "small_airport", "iso_country": "US", "municipality": "Arcadia", "iata_code": "", "icao_code": ""}, "geometry": {"type": "Point", "coordinates": [-86.01249694824219, 40.18000030517578]}}, {"type": "Feature", "properties": {"id": "6711", "ident": "03IS", "name": "OSF St Anthony's Health Center Heliport", "type": "heliport", "iso_country": "US", "municipality": "Alton", "iata_code": "", "icao_code": ""}, "geometry": {"type": "Point", "coordinates": [-90.173401, 38.904999]}}, {"type": "Feature", "properties": {"id": "6712", "ident": "03KS", "name": "Valley Grain Heliport", "type": "heliport", "iso_country": "US", "municipality": "Highland", "iata_code": "", "icao_code": ""}, "geometry": {"type": "Point", "coordinates": [-95.26409912109375, 39.86470031738281]}}, {"type": "Feature", "properties": {"id": "6713", "ident": "03KY", "name": "Flying H Farms Airport", "type": "small_airport", "iso_country": "US", "municipality": "Henderson", "iata_code": "", "icao_code": ""}, "geometry": {"type": "Point", "coordinates": [-87.53859, 37.796085]}}, {"type": "Feature", "properties": {"id": "6714", "ident": "03LA", "name": "Damien Heliport", "type": "heliport", "iso_country": "US", "municipality": "Carville", "iata_code": "", "icao_code": ""}, "geometry": {"type": "Point", "coordinates": [-91.12789916992188, 30.199600219726562]}}, {"type": "Feature", "properties": {"id": "6715", "ident": "03LS", "name": "Fmc Nr 1 Heliport", "type": "heliport", "iso_country": "US", "municipality": "Winnsboro", "iata_code": "", "icao_code": ""}, "geometry": {"type": "Point", "coordinates": [-91.70800018310547, 32.159000396728516]}}, {"type": "Feature", "properties": {"id": "6716", "ident": "03M", "name": "Lakeside Lodge and Marina Seaplane Base", "type": "seaplane_base", "iso_country": "US", "municipality": "East Winthrop", "iata_code": "", "icao_code": ""}, "geometry": {"type": "Point", "coordinates": [-69.889503, 44.3209]}}, {"type": "Feature", "properties": {"id": "6717", "ident": "03MA", "name": "Hadley Airport", "type": "small_airport", "iso_country": "US", "municipality": "Hadley", "iata_code": "", "icao_code": ""}, "geometry": {"type": "Point", "coordinates": [-72.551553, 42.393431]}}, {"type": "Feature", "properties": {"id": "6718", "ident": "03MD", "name": "Upper Chesapeake Medical Center Heliport", "type": "heliport", "iso_country": "US", "municipality": "Bel Air", "iata_code": "", "icao_code": ""}, "geometry": {"type": "Point", "coordinates": [-76.346022, 39.518427]}}, {"type": "Feature", "properties": {"id": "6719", "ident": "03ME", "name": "Maple Ridge Airport", "type": "small_airport", "iso_country": "US", "municipality": "Harrison", "iata_code": "", "icao_code": ""}, "geometry": {"type": "Point", "coordinates": [-70.626905, 44.084251]}}, {"type": "Feature", "properties": {"id": "6720", "ident": "03MI", "name": "Harold Miller Heliport", "type": "heliport", "iso_country": "US", "municipality": "Bay City", "iata_code": "", "icao_code": ""}, "geometry": {"type": "Point", "coordinates": [-83.86219787597656, 43.550899505615234]}}, {"type": "Feature", "properties": {"id": "6721", "ident": "03MN", "name": "Nauerth Land Ranch Airport", "type": "small_airport", "iso_country": "US", "municipality": "Lakefield", "iata_code": "", "icao_code": ""}, "geometry": {"type": "Point", "coordinates": [-95.22470092773438, 43.62519836425781]}}, {"type": "Feature", "properties": {"id": "6723", "ident": "03MS", "name": "Vicksburg Medical Center Heliport", "type": "heliport", "iso_country": "US", "municipality": "Vicksburg", "iata_code": "", "icao_code": ""}, "geometry": {"type": "Point", "coordinates": [-90.8832015991211, 32.31880187988281]}}, {"type": "Feature", "properties": {"id": "6724", "ident": "03MT", "name": "Cascade Field", "type": "small_airport", "iso_country": "US", "municipality": "Cascade", "iata_code": "", "icao_code": ""}, "geometry": {"type": "Point", "coordinates": [-111.71748, 47.267327]}}, {"type": "Feature", "properties": {"id": "6725", "ident": "03MU", "name": "McDonnell Airport", "type": "small_airport", "iso_country": "US", "municipality": "Archie", "iata_code": "", "icao_code": ""}, "geometry": {"type": "Point", "coordinates": [-94.412498, 38.4925]}}, {"type": "Feature", "properties": {"id": "4650", "ident": "03N", "name": "Utirik Airport", "type": "small_airport", "iso_country": "MH", "municipality": "Utirik Island", "iata_code": "UTK", "icao_code": ""}, "geometry": {"type": "Point", "coordinates": [169.851429, 11.222219]}}, {"type": "Feature", "properties": {"id": "6726", "ident": "03NC", "name": "Pilots Ridge Airport", "type": "small_airport", "iso_country": "US", "municipality": "Carolina Beach", "iata_code": "", "icao_code": ""}, "geometry": {"type": "Point", "coordinates": [-77.905855, 34.104236]}}, {"type": "Feature", "properties": {"id": "6727", "ident": "03ND", "name": "Olafson Brothers Airport", "type": "small_airport", "iso_country": "US", "municipality": "Edinburg", "iata_code": "", "icao_code": ""}, "geometry": {"type": "Point", "coordinates": [-97.8290023803711, 48.626399993896484]}}, {"type": "Feature", "properties": {"id": "6728", "ident": "03NE", "name": "Hyde Ranch Airport", "type": "small_airport", "iso_country": "US", "municipality": "Comstock", "iata_code": "", "icao_code": ""}, "geometry": {"type": "Point", "coordinates": [-99.3311996459961, 41.5463981628418]}}, {"type": "Feature", "properties": {"id": "6729", "ident": "03NH", "name": "Lorden Heliport", "type": "heliport", "iso_country": "US", "municipality": "Milford", "iata_code": "", "icao_code": ""}, "geometry": {"type": "Point", "coordinates": [-71.12439727783203, 42.815399169921875]}}, {"type": "Feature", "properties": {"id": "345364", "ident": "03NM", "name": "Miner's Colfax Medical Center Heliport", "type": "heliport", "iso_country": "US", "municipality": "Raton", "iata_code": "", "icao_code": ""}, "geometry": {"type": "Point", "coordinates": [-104.442853, 36.862377]}}, {"type": "Feature", "properties": {"id": "345707", "ident": "03NR", "name": "Johnston Medical Center Heliport", "type": "heliport", "iso_country": "US", "municipality": "Clayton", "iata_code": "", "icao_code": ""}, "geometry": {"type": "Point", "coordinates": [-78.50392, 35.63027]}}, {"type": "Feature", "properties": {"id": "6731", "ident": "03NV", "name": "Llama Ranch Airport", "type": "small_airport", "iso_country": "US", "municipality": "Ruby Valley", "iata_code": "", "icao_code": ""}, "geometry": {"type": "Point", "coordinates": [-115.2979965209961, 40.58440017700195]}}, {"type": "Feature", "properties": {"id": "6732", "ident": "03NY", "name": "Talmage Field", "type": "small_airport", "iso_country": "US", "municipality": "Riverhead", "iata_code": "", "icao_code": ""}, "geometry": {"type": "Point", "coordinates": [-72.717326, 40.958308]}}, {"type": "Feature", "properties": {"id": "6733", "ident": "03OH", "name": "Gibbs Field", "type": "small_airport", "iso_country": "US", "municipality": "Fremont", "iata_code": "", "icao_code": ""}, "geometry": {"type": "Point", "coordinates": [-83.018339, 41.416933]}}, {"type": "Feature", "properties": {"id": "6734", "ident": "03OI", "name": "Cleveland Clinic, Marymount Hospital Heliport", "type": "heliport", "iso_country": "US", "municipality": "Garfield Heights", "iata_code": "", "icao_code": ""}, "geometry": {"type": "Point", "coordinates": [-81.599552, 41.420312]}}, {"type": "Feature", "properties": {"id": "6735", "ident": "03OK", "name": "Sahoma Lake Airport", "type": "small_airport", "iso_country": "US", "municipality": "Sapulpa", "iata_code": "", "icao_code": ""}, "geometry": {"type": "Point", "coordinates": [-96.161517, 36.041259]}}, {"type": "Feature", "properties": {"id": "348548", "ident": "03OL", "name": "Bluebird Airport", "type": "small_airport", "iso_country": "US", "municipality": "Alex", "iata_code": "", "icao_code": ""}, "geometry": {"type": "Point", "coordinates": [-97.702735, 35.012334]}}, {"type": "Feature", "properties": {"id": "6736", "ident": "03OR", "name": "Powwatka Ridge Airport", "type": "small_airport", "iso_country": "US", "municipality": "Troy", "iata_code": "", "icao_code": ""}, "geometry": {"type": "Point", "coordinates": [-117.48400115966797, 45.85540008544922]}}, {"type": "Feature", "properties": {"id": "6737", "ident": "03PA", "name": "Collegeville Heliport", "type": "heliport", "iso_country": "US", "municipality": "Collegeville", "iata_code": "", "icao_code": ""}, "geometry": {"type": "Point", "coordinates": [-75.4656982421875, 40.162899017333984]}}, {"type": "Feature", "properties": {"id": "6738", "ident": "03PN", "name": "M.P. Metals Heliport", "type": "heliport", "iso_country": "US", "municipality": "Berwick", "iata_code": "", "icao_code": ""}, "geometry": {"type": "Point", "coordinates": [-76.180806, 41.066861]}}, {"type": "Feature", "properties": {"id": "322892", "ident": "03PR", "name": "Sun View Field Airport", "type": "small_airport", "iso_country": "US", "municipality": "Bonner Springs", "iata_code": "", "icao_code": ""}, "geometry": {"type": "Point", "coordinates": [-94.938417, 39.065931]}}, {"type": "Feature", "properties": {"id": "6740", "ident": "03S", "name": "Sandy River Airport", "type": "small_airport", "iso_country": "US", "municipality": "Sandy", "iata_code": "", "icao_code": ""}, "geometry": {"type": "Point", "coordinates": [-122.228771, 45.401629]}}, {"type": "Feature", "properties": {"id": "6741", "ident": "03SC", "name": "Seacoast Medical Center Heliport", "type": "heliport", "iso_country": "US", "municipality": "Little River", "iata_code": "", "icao_code": ""}, "geometry": {"type": "Point", "coordinates": [-78.66190338134766, 33.8650016784668]}}, {"type": "Feature", "properties": {"id": "6743", "ident": "03TE", "name": "Barronena Ranch Airport", "type": "small_airport", "iso_country": "US", "municipality": "Hebbronville", "iata_code": "", "icao_code": ""}, "geometry": {"type": "Point", "coordinates": [-98.669615, 27.490812]}}, {"type": "Feature", "properties": {"id": "6744", "ident": "03TN", "name": "Eagles Landing Heliport", "type": "heliport", "iso_country": "US", "municipality": "Sevierville", "iata_code": "", "icao_code": ""}, "geometry": {"type": "Point", "coordinates": [-83.57939910888672, 35.92250061035156]}}, {"type": "Feature", "properties": {"id": "6745", "ident": "03TS", "name": "Shannon Medical Center Heliport", "type": "heliport", "iso_country": "US", "municipality": "San Angelo", "iata_code": "", "icao_code": ""}, "geometry": {"type": "Point", "coordinates": [-100.43397, 31.4658]}}, {"type": "Feature", "properties": {"id": "341551", "ident": "03TT", "name": "Brazos Polo Airport", "type": "small_airport", "iso_country": "US", "municipality": "Orchard", "iata_code": "", "icao_code": ""}, "geometry": {"type": "Point", "coordinates": [-95.932481, 29.632117]}}, {"type": "Feature", "properties": {"id": "6746", "ident": "03TX", "name": "M D K Field Heliport", "type": "heliport", "iso_country": "US", "municipality": "Pearland", "iata_code": "", "icao_code": ""}, "geometry": {"type": "Point", "coordinates": [-95.30508, 29.580929]}}, {"type": "Feature", "properties": {"id": "6747", "ident": "03UT", "name": "AZ Minerals Corporation Airport", "type": "small_airport", "iso_country": "US", "municipality": "Mexican Hat", "iata_code": "", "icao_code": ""}, "geometry": {"type": "Point", "coordinates": [-109.99014, 37.114384]}}, {"type": "Feature", "properties": {"id": "6749", "ident": "03WA", "name": "Spangle Field", "type": "small_airport", "iso_country": "US", "municipality": "Spangle", "iata_code": "", "icao_code": ""}, "geometry": {"type": "Point", "coordinates": [-117.37200164794922, 47.408199310302734]}}, {"type": "Feature", "properties": {"id": "6751", "ident": "03WN", "name": "Aerostone Ranch Airport", "type": "small_airport", "iso_country": "US", "municipality": "Goldendale", "iata_code": "", "icao_code": ""}, "geometry": {"type": "Point", "coordinates": [-120.66999816894531, 45.875]}}, {"type": "Feature", "properties": {"id": "348415", "ident": "03WT", "name": "Lopez Medical Clinic Heliport", "type": "heliport", "iso_country": "US", "municipality": "Lopez Island", "iata_code": "", "icao_code": ""}, "geometry": {"type": "Point", "coordinates": [-122.912394, 48.524894]}}, {"type": "Feature", "properties": {"id": "345757", "ident": "03XA", "name": "Del Sol Medical Center Heliport", "type": "heliport", "iso_country": "US", "municipality": "El Paso", "iata_code": "", "icao_code": ""}, "geometry": {"type": "Point", "coordinates": [-106.346895, 31.7574]}}, {"type": "Feature", "properties": {"id": "6752", "ident": "03XS", "name": "Creekside Airport", "type": "small_airport", "iso_country": "US", "municipality": "Mertzon", "iata_code": "", "icao_code": ""}, "geometry": {"type": "Point", "coordinates": [-100.75399780273438, 31.318099975585938]}}, {"type": "Feature", "properties": {"id": "325443", "ident": "04AA", "name": "Flying W Ranch Airport", "type": "small_airport", "iso_country": "US", "municipality": "Soldotna", "iata_code": "", "icao_code": ""}, "geometry": {"type": "Point", "coordinates": [-150.811387, 60.535833]}}, {"type": "Feature", "properties": {"id": "6753", "ident": "04AL", "name": "Anniston AHP (Anniston Army Depot)", "type": "heliport", "iso_country": "US", "municipality": "Anniston", "iata_code": "", "icao_code": ""}, "geometry": {"type": "Point", "coordinates": [-85.96720123, 33.62639999]}}, {"type": "Feature", "properties": {"id": "509055", "ident": "04AN", "name": "North 40 Airport", "type": "small_airport", "iso_country": "US", "municipality": "Sutton", "iata_code": "", "icao_code": ""}, "geometry": {"type": "Point", "coordinates": [-148.700724, 61.737511]}}, {"type": "Feature", "properties": {"id": "6754", "ident": "04AR", "name": "Saline Memorial Hospital Heliport", "type": "heliport", "iso_country": "US", "municipality": "Benton", "iata_code": "", "icao_code": ""}, "geometry": {"type": "Point", "coordinates": [-92.586047, 34.574319]}}, {"type": "Feature", "properties": {"id": "6756", "ident": "04CA", "name": "Gray Butte Field", "type": "small_airport", "iso_country": "US", "municipality": "Palmdale", "iata_code": "", "icao_code": ""}, "geometry": {"type": "Point", "coordinates": [-117.670666, 34.566631]}}, {"type": "Feature", "properties": {"id": "6757", "ident": "04CL", "name": "Hunt's Sky Ranch Airport", "type": "small_airport", "iso_country": "US", "municipality": "Julian", "iata_code": "", "icao_code": ""}, "geometry": {"type": "Point", "coordinates": [-116.44100189208984, 33.08169937133789]}}, {"type": "Feature", "properties": {"id": "6758", "ident": "04CT", "name": "Shingle Mill Heliport", "type": "heliport", "iso_country": "US", "municipality": "Harwinton", "iata_code": "", "icao_code": ""}, "geometry": {"type": "Point", "coordinates": [-73.05239868164062, 41.75510025024414]}}, {"type": "Feature", "properties": {"id": "6760", "ident": "04FA", "name": "Richards Field", "type": "small_airport", "iso_country": "US", "municipality": "Homestead", "iata_code": "", "icao_code": ""}, "geometry": {"type": "Point", "coordinates": [-80.51509857177734, 25.558700561523438]}}, {"type": "Feature", "properties": {"id": "324859", "ident": "04FD", "name": "Tampa General Hospital Brandon Healthplex Heliport", "type": "heliport", "iso_country": "US", "municipality": "Brandon", "iata_code": "", "icao_code": ""}, "geometry": {"type": "Point", "coordinates": [-82.336981, 27.929372]}}, {"type": "Feature", "properties": {"id": "6761", "ident": "04FL", "name": "Cross Creek Farms Airport", "type": "small_airport", "iso_country": "US", "municipality": "Ormond Beach", "iata_code": "", "icao_code": ""}, "geometry": {"type": "Point", "coordinates": [-81.222525, 29.240353]}}, {"type": "Feature", "properties": {"id": "597570", "ident": "04GA", "name": "Verge Towers Heliport", "type": "heliport", "iso_country": "US", "municipality": "Monroe", "iata_code": "", "icao_code": ""}, "geometry": {"type": "Point", "coordinates": [-83.562335, 33.832365]}}, {"type": "Feature", "properties": {"id": "6762", "ident": "04I", "name": "Columbus Southwest Airport", "type": "small_airport", "iso_country": "US", "municipality": "Columbus", "iata_code": "", "icao_code": ""}, "geometry": {"type": "Point", "coordinates": [-83.188577, 39.91151]}}, {"type": "Feature", "properties": {"id": "6763", "ident": "04IA", "name": "Middlekoop Airport", "type": "small_airport", "iso_country": "US", "municipality": "Packwood", "iata_code": "", "icao_code": ""}, "geometry": {"type": "Point", "coordinates": [-92.05460357666016, 41.08829879760742]}}, {"type": "Feature", "properties": {"id": "6764", "ident": "04ID", "name": "Lanham Field", "type": "small_airport", "iso_country": "US", "municipality": "Emmett", "iata_code": "", "icao_code": ""}, "geometry": {"type": "Point", "coordinates": [-116.538365, 43.877015]}}, {"type": "Feature", "properties": {"id": "6766", "ident": "04IL", "name": "Schertz Aerial Service - Hudson Airport", "type": "small_airport", "iso_country": "US", "municipality": "Hudson", "iata_code": "", "icao_code": ""}, "geometry": {"type": "Point", "coordinates": [-89.0070037842, 40.6375007629]}}, {"type": "Feature", "properties": {"id": "45410", "ident": "04IN", "name": "Lake Gage Seaplane Base", "type": "seaplane_base", "iso_country": "US", "municipality": "Angola", "iata_code": "", "icao_code": ""}, "geometry": {"type": "Point", "coordinates": [-85.113056, 41.701389]}}, {"type": "Feature", "properties": {"id": "6767", "ident": "04IS", "name": "Van Gorder Airport", "type": "small_airport", "iso_country": "US", "municipality": "Mansfield", "iata_code": "", "icao_code": ""}, "geometry": {"type": "Point", "coordinates": [-88.56900024414062, 40.1786003112793]}}, {"type": "Feature", "properties": {"id": "6769", "ident": "04KY", "name": "Natchez Trace Farm Airport", "type": "small_airport", "iso_country": "US", "municipality": "Hiseville", "iata_code": "", "icao_code": ""}, "geometry": {"type": "Point", "coordinates": [-85.78939819335938, 37.135101318359375]}}, {"type": "Feature", "properties": {"id": "6770", "ident": "04LA", "name": "Saint James Parish Hospital Heliport", "type": "heliport", "iso_country": "US", "municipality": "Lutcher", "iata_code": "", "icao_code": ""}, "geometry": {"type": "Point", "coordinates": [-90.703848, 30.051001]}}, {"type": "Feature", "properties": {"id": "6772", "ident": "04LS", "name": "La National Guard Heliport", "type": "heliport", "iso_country": "US", "municipality": "Baton Rouge", "iata_code": "", "icao_code": ""}, "geometry": {"type": "Point", "coordinates": [-91.10530090332031, 30.44610023498535]}}, {"type": "Feature", "properties": {"id": "6773", "ident": "04MA", "name": "Goddard Field", "type": "small_airport", "iso_country": "US", "municipality": "Haverhill", "iata_code": "", "icao_code": ""}, "geometry": {"type": "Point", "coordinates": [-71.140959, 42.810908]}}, {"type": "Feature", "properties": {"id": "6774", "ident": "04MD", "name": "Chesapeake City Heliport", "type": "heliport", "iso_country": "US", "municipality": "Chesapeake City", "iata_code": "", "icao_code": ""}, "geometry": {"type": "Point", "coordinates": [-75.82140350341797, 39.51810073852539]}}, {"type": "Feature", "properties": {"id": "6775", "ident": "04ME", "name": "Beech Hill Airport", "type": "small_airport", "iso_country": "US", "municipality": "Mercer", "iata_code": "", "icao_code": ""}, "geometry": {"type": "Point", "coordinates": [-69.8938980102539, 44.66669845581055]}}, {"type": "Feature", "properties": {"id": "6776", "ident": "04MI", "name": "Rapids Airway Airport", "type": "small_airport", "iso_country": "US", "municipality": "Eaton Rapids", "iata_code": "", "icao_code": ""}, "geometry": {"type": "Point", "coordinates": [-84.62830352783203, 42.53450012207031]}}, {"type": "Feature", "properties": {"id": "6777", "ident": "04MN", "name": "Helblad Airport", "type": "small_airport", "iso_country": "US", "municipality": "Kelliher", "iata_code": "", "icao_code": ""}, "geometry": {"type": "Point", "coordinates": [-94.68689727783203, 47.985801696777344]}}, {"type": "Feature", "properties": {"id": "6779", "ident": "04MS", "name": "Nick's Flying Service Inc Airport", "type": "small_airport", "iso_country": "US", "municipality": "Rolling Fork", "iata_code": "", "icao_code": ""}, "geometry": {"type": "Point", "coordinates": [-90.836683, 32.940537]}}, {"type": "Feature", "properties": {"id": "6780", "ident": "04MT", "name": "Pluhar Airport", "type": "small_airport", "iso_country": "US", "municipality": "Cohagen", "iata_code": "", "icao_code": ""}, "geometry": {"type": "Point", "coordinates": [-106.488095, 47.13749777779999]}}, {"type": "Feature", "properties": {"id": "6781", "ident": "04NC", "name": "Western Wake Medical Center Heliport", "type": "heliport", "iso_country": "US", "municipality": "Cary", "iata_code": "", "icao_code": ""}, "geometry": {"type": "Point", "coordinates": [-78.7822036743, 35.739200592]}}, {"type": "Feature", "properties": {"id": "6782", "ident": "04NE", "name": "Mc Connell Field Airport", "type": "small_airport", "iso_country": "US", "municipality": "Sarben", "iata_code": "", "icao_code": ""}, "geometry": {"type": "Point", "coordinates": [-101.299003601, 41.159999847399995]}}, {"type": "Feature", "properties": {"id": "6783", "ident": "04NJ", "name": "Emmanuel Airport", "type": "small_airport", "iso_country": "US", "municipality": "Elmer", "iata_code": "", "icao_code": ""}, "geometry": {"type": "Point", "coordinates": [-75.2334976196, 39.596801757799994]}}, {"type": "Feature", "properties": {"id": "347887", "ident": "04NR", "name": "McGee 04 Heliport", "type": "heliport", "iso_country": "US", "municipality": "Jacksonville", "iata_code": "", "icao_code": ""}, "geometry": {"type": "Point", "coordinates": [-77.392244, 34.775671]}}, {"type": "Feature", "properties": {"id": "6784", "ident": "04NV", "name": "Kingston Ranch Airport", "type": "small_airport", "iso_country": "US", "municipality": "Sandy Valley", "iata_code": "", "icao_code": ""}, "geometry": {"type": "Point", "coordinates": [-115.665000916, 35.7555007935]}}, {"type": "Feature", "properties": {"id": "6785", "ident": "04NY", "name": "Klaverack Airport", "type": "small_airport", "iso_country": "US", "municipality": "Hudson", "iata_code": "", "icao_code": ""}, "geometry": {"type": "Point", "coordinates": [-73.6961975098, 42.262298584]}}, {"type": "Feature", "properties": {"id": "45733", "ident": "04OG", "name": "Teufel Heliport", "type": "heliport", "iso_country": "US", "municipality": "Forest Grove", "iata_code": "", "icao_code": ""}, "geometry": {"type": "Point", "coordinates": [-123.085556, 45.530833]}}, {"type": "Feature", "properties": {"id": "6787", "ident": "04OK", "name": "Stillwater Medical Center Heliport", "type": "heliport", "iso_country": "US", "municipality": "Stillwater", "iata_code": "", "icao_code": ""}, "geometry": {"type": "Point", "coordinates": [-97.079498291, 36.1152992249]}}, {"type": "Feature", "properties": {"id": "6788", "ident": "04OR", "name": "Collins Landing Strip", "type": "small_airport", "iso_country": "US", "municipality": "Mitchell", "iata_code": "", "icao_code": ""}, "geometry": {"type": "Point", "coordinates": [-120.200996399, 44.7499008179]}}, {"type": "Feature", "properties": {"id": "6789", "ident": "04PA", "name": "S & C Distribution Center Heliport", "type": "heliport", "iso_country": "US", "municipality": "Philadelphia", "iata_code": "", "icao_code": ""}, "geometry": {"type": "Point", "coordinates": [-75.2287979126, 39.87929916379999]}}, {"type": "Feature", "properties": {"id": "6790", "ident": "04PN", "name": "Strawbridge & Clothier Exton Heliport", "type": "heliport", "iso_country": "US", "municipality": "Exton", "iata_code": "", "icao_code": ""}, "geometry": {"type": "Point", "coordinates": [-75.63021, 40.0306619]}}, {"type": "Feature", "properties": {"id": "6791", "ident": "04SC", "name": "Emergency Helipad", "type": "heliport", "iso_country": "US", "municipality": "Easley", "iata_code": "", "icao_code": ""}, "geometry": {"type": "Point", "coordinates": [-82.60714, 34.842188]}}, {"type": "Feature", "properties": {"id": "325773", "ident": "04SD", "name": "Cheyenne River Health Center Heliport", "type": "heliport", "iso_country": "US", "municipality": "Eagle Butte", "iata_code": "", "icao_code": ""}, "geometry": {"type": "Point", "coordinates": [-101.24311, 44.993013]}}, {"type": "Feature", "properties": {"id": "6793", "ident": "04TE", "name": "Veterans Affairs Medical Center Heliport", "type": "heliport", "iso_country": "US", "municipality": "Houston", "iata_code": "", "icao_code": ""}, "geometry": {"type": "Point", "coordinates": [-95.39069, 29.699687]}}, {"type": "Feature", "properties": {"id": "6794", "ident": "04TN", "name": "Hensley Airpark", "type": "small_airport", "iso_country": "US", "municipality": "Chuckey", "iata_code": "", "icao_code": ""}, "geometry": {"type": "Point", "coordinates": [-82.67890167239999, 36.183300018299995]}}, {"type": "Feature", "properties": {"id": "6795", "ident": "04TS", "name": "Hummingbird Heliport", "type": "heliport", "iso_country": "US", "municipality": "Round Rock", "iata_code": "", "icao_code": ""}, "geometry": {"type": "Point", "coordinates": [-97.605358, 30.553284]}}, {"type": "Feature", "properties": {"id": "342438", "ident": "04TT", "name": "4D Ranch Airport", "type": "small_airport", "iso_country": "US", "municipality": "Utopia", "iata_code": "", "icao_code": ""}, "geometry": {"type": "Point", "coordinates": [-99.545642, 29.713072]}}, {"type": "Feature", "properties": {"id": "6796", "ident": "04TX", "name": "Pocock Airport", "type": "small_airport", "iso_country": "US", "municipality": "China Spring", "iata_code": "", "icao_code": ""}, "geometry": {"type": "Point", "coordinates": [-97.369326, 31.732779]}}, {"type": "Feature", "properties": {"id": "6797", "ident": "04UT", "name": "Navajo Mountain Airport", "type": "small_airport", "iso_country": "US", "municipality": "Navajo Mountain", "iata_code": "", "icao_code": ""}, "geometry": {"type": "Point", "coordinates": [-110.794701, 37.006689]}}, {"type": "Feature", "properties": {"id": "6798", "ident": "04V", "name": "Saguache Municipal Airport", "type": "small_airport", "iso_country": "US", "municipality": "Saguache", "iata_code": "", "icao_code": ""}, "geometry": {"type": "Point", "coordinates": [-106.174389, 38.099083]}}, {"type": "Feature", "properties": {"id": "6799", "ident": "04VA", "name": "Russell County Medical Center Heliport", "type": "heliport", "iso_country": "US", "municipality": "Lebanon", "iata_code": "", "icao_code": ""}, "geometry": {"type": "Point", "coordinates": [-82.078477, 36.898246]}}, {"type": "Feature", "properties": {"id": "6800", "ident": "04VG", "name": "Manquin Flight Park Ultralightport", "type": "small_airport", "iso_country": "US", "municipality": "Manquin", "iata_code": "", "icao_code": ""}, "geometry": {"type": "Point", "coordinates": [-77.201621, 37.706546]}}, {"type": "Feature", "properties": {"id": "6801", "ident": "04VT", "name": "Lightning Bolt Field Airport", "type": "small_airport", "iso_country": "US", "municipality": "Cabot", "iata_code": "", "icao_code": ""}, "geometry": {"type": "Point", "coordinates": [-72.26360321039999, 44.4011001587]}}, {"type": "Feature", "properties": {"id": "6802", "ident": "04W", "name": "Field of Dreams Airport", "type": "small_airport", "iso_country": "US", "municipality": "Hinckley", "iata_code": "", "icao_code": ""}, "geometry": {"type": "Point", "coordinates": [-92.895401, 46.0228]}}, {"type": "Feature", "properties": {"id": "6803", "ident": "04WA", "name": "Ox Meadows Airport", "type": "small_airport", "iso_country": "US", "municipality": "Spokane", "iata_code": "", "icao_code": ""}, "geometry": {"type": "Point", "coordinates": [-117.437131, 47.581795]}}, {"type": "Feature", "properties": {"id": "6804", "ident": "04WI", "name": "Dutch Gap Airstrip", "type": "small_airport", "iso_country": "US", "municipality": "Bristol", "iata_code": "", "icao_code": ""}, "geometry": {"type": "Point", "coordinates": [-88.0167007446, 42.523399353]}}, {"type": "Feature", "properties": {"id": "45903", "ident": "04WN", "name": "Stillwater Creek Airport", "type": "small_airport", "iso_country": "US", "municipality": "Royal City", "iata_code": "", "icao_code": ""}, "geometry": {"type": "Point", "coordinates": [-119.63864, 46.95835]}}, {"type": "Feature", "properties": {"id": "6805", "ident": "04WV", "name": "West Virginia Univ. Hosp. Inc. Gnd. Pad #2 Heliport", "type": "heliport", "iso_country": "US", "municipality": "Morgantown", "iata_code": "", "icao_code": ""}, "geometry": {"type": "Point", "coordinates": [-79.9561111111, 39.6536111111]}}, {"type": "Feature", "properties": {"id": "334249", "ident": "04XA", "name": "Pecan Field", "type": "small_airport", "iso_country": "US", "municipality": "Jermyn", "iata_code": "", "icao_code": ""}, "geometry": {"type": "Point", "coordinates": [-98.402861, 33.283933]}}, {"type": "Feature", "properties": {"id": "6807", "ident": "05AK", "name": "Wasilla Creek Airpark", "type": "small_airport", "iso_country": "US", "municipality": "Palmer", "iata_code": "", "icao_code": ""}, "geometry": {"type": "Point", "coordinates": [-149.1880035, 61.66830063]}}, {"type": "Feature", "properties": {"id": "6808", "ident": "05AL", "name": "Allen Stagefield Army Heliport", "type": "heliport", "iso_country": "US", "municipality": "Fort Rucker/Wicksburg", "iata_code": "", "icao_code": ""}, "geometry": {"type": "Point", "coordinates": [-85.64969635010002, 31.2311992645]}}, {"type": "Feature", "properties": {"id": "514272", "ident": "05AN", "name": "Wetons Aerodrome", "type": "small_airport", "iso_country": "US", "municipality": "Fox", "iata_code": "", "icao_code": ""}, "geometry": {"type": "Point", "coordinates": [-147.601092, 64.960472]}}, {"type": "Feature", "properties": {"id": "45302", "ident": "05AR", "name": "Ozark Skies Airpark", "type": "small_airport", "iso_country": "US", "municipality": "Kingston", "iata_code": "", "icao_code": ""}, "geometry": {"type": "Point", "coordinates": [-93.57025, 36.000633]}}, {"type": "Feature", "properties": {"id": "6809", "ident": "05AZ", "name": "Yuma Regional Medical Center Heliport", "type": "heliport", "iso_country": "US", "municipality": "Yuma", "iata_code": "", "icao_code": ""}, "geometry": {"type": "Point", "coordinates": [-114.634346, 32.683452]}}, {"type": "Feature", "properties": {"id": "6810", "ident": "05B", "name": "Van Buren Seaplane Base", "type": "seaplane_base", "iso_country": "US", "municipality": "Van Buren", "iata_code": "", "icao_code": ""}, "geometry": {"type": "Point", "coordinates": [-67.931999, 47.158901]}}, {"type": "Feature", "properties": {"id": "6811", "ident": "05CA", "name": "Lost Hills Sheriff's Station Heliport", "type": "heliport", "iso_country": "US", "municipality": "Calabasas", "iata_code": "", "icao_code": ""}, "geometry": {"type": "Point", "coordinates": [-118.714685, 34.136516]}}, {"type": "Feature", "properties": {"id": "6812", "ident": "05CL", "name": "Pope Valley Airport", "type": "small_airport", "iso_country": "US", "municipality": "Pope Valley", "iata_code": "", "icao_code": ""}, "geometry": {"type": "Point", "coordinates": [-122.39099884, 38.6106987]}}, {"type": "Feature", "properties": {"id": "6813", "ident": "05CO", "name": "Rancho de Aereo Airport", "type": "small_airport", "iso_country": "US", "municipality": "Mead", "iata_code": "", "icao_code": ""}, "geometry": {"type": "Point", "coordinates": [-104.984423, 40.214984]}}, {"type": "Feature", "properties": {"id": "6814", "ident": "05CT", "name": "O And G Heliport", "type": "heliport", "iso_country": "US", "municipality": "Torrington", "iata_code": "", "icao_code": ""}, "geometry": {"type": "Point", "coordinates": [-73.1162033081, 41.7737007141]}}, {"type": "Feature", "properties": {"id": "6815", "ident": "05FA", "name": "Melanie's Airport", "type": "small_airport", "iso_country": "US", "municipality": "Florala", "iata_code": "", "icao_code": ""}, "geometry": {"type": "Point", "coordinates": [-86.21829986572266, 30.918899536132812]}}, {"type": "Feature", "properties": {"id": "6816", "ident": "05FD", "name": "Aventura Heliport", "type": "heliport", "iso_country": "US", "municipality": "North Miami Beach", "iata_code": "", "icao_code": ""}, "geometry": {"type": "Point", "coordinates": [-80.13919830322266, 25.960899353027344]}}, {"type": "Feature", "properties": {"id": "6817", "ident": "05FL", "name": "Charlton Strip", "type": "small_airport", "iso_country": "US", "municipality": "La Belle", "iata_code": "", "icao_code": ""}, "geometry": {"type": "Point", "coordinates": [-81.41031, 26.52018]}}, {"type": "Feature", "properties": {"id": "6818", "ident": "05GA", "name": "Raju Airport", "type": "small_airport", "iso_country": "US", "municipality": "Richland", "iata_code": "", "icao_code": ""}, "geometry": {"type": "Point", "coordinates": [-84.71440124511719, 32.0713996887207]}}, {"type": "Feature", "properties": {"id": "6819", "ident": "05IA", "name": "Spotts Field", "type": "small_airport", "iso_country": "US", "municipality": "Nora Springs", "iata_code": "", "icao_code": ""}, "geometry": {"type": "Point", "coordinates": [-93.06829833984375, 43.13750076293945]}}, {"type": "Feature", "properties": {"id": "6820", "ident": "05ID", "name": "Running Creek Ranch Airport", "type": "small_airport", "iso_country": "US", "municipality": "Elk City", "iata_code": "", "icao_code": ""}, "geometry": {"type": "Point", "coordinates": [-114.835999, 45.914101]}}, {"type": "Feature", "properties": {"id": "6822", "ident": "05IL", "name": "Classic Landings Airport", "type": "small_airport", "iso_country": "US", "municipality": "Bonfield", "iata_code": "", "icao_code": ""}, "geometry": {"type": "Point", "coordinates": [-88.0167007446289, 41.156700134277344]}}, {"type": "Feature", "properties": {"id": "6823", "ident": "05IN", "name": "Cooper Airport", "type": "small_airport", "iso_country": "US", "municipality": "Belleville", "iata_code": "", "icao_code": ""}, "geometry": {"type": "Point", "coordinates": [-86.50420379638672, 39.641998291015625]}}, {"type": "Feature", "properties": {"id": "6824", "ident": "05IS", "name": "Hardy Airport", "type": "small_airport", "iso_country": "US", "municipality": "Mount Auburn", "iata_code": "", "icao_code": ""}, "geometry": {"type": "Point", "coordinates": [-89.26399993896484, 39.72589874267578]}}, {"type": "Feature", "properties": {"id": "6825", "ident": "05KS", "name": "Darbro Field", "type": "small_airport", "iso_country": "US", "municipality": "Elk City", "iata_code": "", "icao_code": ""}, "geometry": {"type": "Point", "coordinates": [-95.95919799804688, 37.26620101928711]}}, {"type": "Feature", "properties": {"id": "346026", "ident": "05KT", "name": "High Point Farm Airport", "type": "small_airport", "iso_country": "US", "municipality": "Frankfort", "iata_code": "", "icao_code": ""}, "geometry": {"type": "Point", "coordinates": [-84.93011, 38.187091]}}, {"type": "Feature", "properties": {"id": "6826", "ident": "05KY", "name": "Cartersville Airport", "type": "small_airport", "iso_country": "US", "municipality": "Paint Lick", "iata_code": "", "icao_code": ""}, "geometry": {"type": "Point", "coordinates": [-84.407303, 37.53575]}}, {"type": "Feature", "properties": {"id": "6827", "ident": "05LA", "name": "Greg's Flying Service Airport", "type": "small_airport", "iso_country": "US", "municipality": "Winnsboro", "iata_code": "", "icao_code": ""}, "geometry": {"type": "Point", "coordinates": [-91.6978, 32.265301]}}, {"type": "Feature", "properties": {"id": "6828", "ident": "05LL", "name": "Midwest Heliport", "type": "heliport", "iso_country": "US", "municipality": "Willowbrook", "iata_code": "", "icao_code": ""}, "geometry": {"type": "Point", "coordinates": [-87.935783, 41.749228]}}, {"type": "Feature", "properties": {"id": "6829", "ident": "05LS", "name": "Grass Roots Airport", "type": "small_airport", "iso_country": "US", "municipality": "Alexandria", "iata_code": "", "icao_code": ""}, "geometry": {"type": "Point", "coordinates": [-92.47569, 31.252148]}}, {"type": "Feature", "properties": {"id": "6830", "ident": "05M", "name": "Pauls Valley General Hospital Heliport", "type": "heliport", "iso_country": "US", "municipality": "Pauls Valley", "iata_code": "", "icao_code": ""}, "geometry": {"type": "Point", "coordinates": [-97.214237, 34.71979]}}, {"type": "Feature", "properties": {"id": "6831", "ident": "05MA", "name": "Bentley Heliport", "type": "heliport", "iso_country": "US", "municipality": "Ipswich", "iata_code": "", "icao_code": ""}, "geometry": {"type": "Point", "coordinates": [-70.91230010986328, 42.691200256347656]}}, {"type": "Feature", "properties": {"id": "6832", "ident": "05MD", "name": "Breezecroft Airport", "type": "small_airport", "iso_country": "US", "municipality": "Chestertown", "iata_code": "", "icao_code": ""}, "geometry": {"type": "Point", "coordinates": [-76.198661, 39.244232]}}, {"type": "Feature", "properties": {"id": "6833", "ident": "05ME", "name": "Drisko Airport", "type": "small_airport", "iso_country": "US", "municipality": "Jonesboro", "iata_code": "", "icao_code": ""}, "geometry": {"type": "Point", "coordinates": [-67.55919647216797, 44.65700149536133]}}, {"type": "Feature", "properties": {"id": "345550", "ident": "05MI", "name": "Beaumont Hospital Taylor Heliport", "type": "heliport", "iso_country": "US", "municipality": "Taylor", "iata_code": "", "icao_code": ""}, "geometry": {"type": "Point", "coordinates": [-83.276421, 42.236433]}}, {"type": "Feature", "properties": {"id": "322876", "ident": "05MN", "name": "Northern Pines Medical Center Heliport", "type": "heliport", "iso_country": "US", "municipality": "Aurora", "iata_code": "", "icao_code": ""}, "geometry": {"type": "Point", "coordinates": [-92.2302778, 47.5175001]}}, {"type": "Feature", "properties": {"id": "6835", "ident": "05MS", "name": "VA Medical Center Jackson Heliport", "type": "heliport", "iso_country": "US", "municipality": "Jackson", "iata_code": "", "icao_code": ""}, "geometry": {"type": "Point", "coordinates": [-90.16273, 32.32973]}}, {"type": "Feature", "properties": {"id": "329892", "ident": "05MT", "name": "Jones Landing Airport", "type": "small_airport", "iso_country": "US", "municipality": "Belgrade", "iata_code": "", "icao_code": ""}, "geometry": {"type": "Point", "coordinates": [-111.152163, 45.815368]}}, {"type": "Feature", "properties": {"id": "6837", "ident": "05NE", "name": "Mc Kay Airport", "type": "small_airport", "iso_country": "US", "municipality": "Spalding", "iata_code": "", "icao_code": ""}, "geometry": {"type": "Point", "coordinates": [-98.3089981079, 41.7221984863]}}, {"type": "Feature", "properties": {"id": "6838", "ident": "05NH", "name": "Stumpfield Heliport", "type": "heliport", "iso_country": "US", "municipality": "Kensington", "iata_code": "", "icao_code": ""}, "geometry": {"type": "Point", "coordinates": [-70.95140075683594, 42.92390060424805]}}, {"type": "Feature", "properties": {"id": "6839", "ident": "05NJ", "name": "Paulus Hook Pier Heliport", "type": "heliport", "iso_country": "US", "municipality": "Jersey City", "iata_code": "", "icao_code": ""}, "geometry": {"type": "Point", "coordinates": [-74.03203, 40.713385]}}, {"type": "Feature", "properties": {"id": "537370", "ident": "05NR", "name": "Gary Fox Airport", "type": "small_airport", "iso_country": "US", "municipality": "Mebane", "iata_code": "", "icao_code": ""}, "geometry": {"type": "Point", "coordinates": [-79.276908, 36.168415]}}, {"type": "Feature", "properties": {"id": "324404", "ident": "05NV", "name": "Baker Ranches Airport", "type": "small_airport", "iso_country": "US", "municipality": "Baker", "iata_code": "", "icao_code": ""}, "geometry": {"type": "Point", "coordinates": [-114.088219, 39.0311]}}, {"type": "Feature", "properties": {"id": "6840", "ident": "05NY", "name": "Oswego County At Pulaski Heliport", "type": "heliport", "iso_country": "US", "municipality": "Pulaski", "iata_code": "", "icao_code": ""}, "geometry": {"type": "Point", "coordinates": [-76.09020233154297, 43.551998138427734]}}, {"type": "Feature", "properties": {"id": "347917", "ident": "05OG", "name": "Drill Field Pad Heliport", "type": "heliport", "iso_country": "US", "municipality": "Eugene", "iata_code": "", "icao_code": ""}, "geometry": {"type": "Point", "coordinates": [-123.118951, 44.059531]}}, {"type": "Feature", "properties": {"id": "429744", "ident": "05OH", "name": "Eaglecrest Field", "type": "small_airport", "iso_country": "US", "municipality": "Conesville", "iata_code": "", "icao_code": ""}, "geometry": {"type": "Point", "coordinates": [-81.920564, 40.184513]}}, {"type": "Feature", "properties": {"id": "6841", "ident": "05OI", "name": "Dorlon Airpark", "type": "small_airport", "iso_country": "US", "municipality": "Columbia Station", "iata_code": "", "icao_code": ""}, "geometry": {"type": "Point", "coordinates": [-81.96260070800781, 41.28839874267578]}}, {"type": "Feature", "properties": {"id": "6843", "ident": "05OR", "name": "Peacock Ranch Airport", "type": "small_airport", "iso_country": "US", "municipality": "Enterprise", "iata_code": "", "icao_code": ""}, "geometry": {"type": "Point", "coordinates": [-117.34722, 45.44428]}}, {"type": "Feature", "properties": {"id": "6844", "ident": "05PA", "name": "PECO Mob. Heliport", "type": "heliport", "iso_country": "US", "municipality": "Philadelphia", "iata_code": "", "icao_code": ""}, "geometry": {"type": "Point", "coordinates": [-75.178201, 39.9548]}}, {"type": "Feature", "properties": {"id": "6845", "ident": "05PN", "name": "State Police Area Iii Heliport", "type": "heliport", "iso_country": "US", "municipality": "Harrisburg", "iata_code": "", "icao_code": ""}, "geometry": {"type": "Point", "coordinates": [-76.85800170898438, 40.30009841918945]}}, {"type": "Feature", "properties": {"id": "6846", "ident": "05PS", "name": "Mills Brothers Airport", "type": "small_airport", "iso_country": "US", "municipality": "Neelyton", "iata_code": "", "icao_code": ""}, "geometry": {"type": "Point", "coordinates": [-77.86221, 40.143075]}}, {"type": "Feature", "properties": {"id": "6847", "ident": "05S", "name": "Vernonia Airfield", "type": "small_airport", "iso_country": "US", "municipality": "Vernonia", "iata_code": "", "icao_code": ""}, "geometry": {"type": "Point", "coordinates": [-123.24199676513672, 45.85150146484375]}}, {"type": "Feature", "properties": {"id": "6848", "ident": "05TA", "name": "Brandes Air Field", "type": "small_airport", "iso_country": "US", "municipality": "Sealy", "iata_code": "", "icao_code": ""}, "geometry": {"type": "Point", "coordinates": [-96.26509857177734, 29.809099197387695]}}, {"type": "Feature", "properties": {"id": "6849", "ident": "05TE", "name": "Hilde-Griff Field", "type": "small_airport", "iso_country": "US", "municipality": "Georgetown", "iata_code": "", "icao_code": ""}, "geometry": {"type": "Point", "coordinates": [-97.79139709472656, 30.72209930419922]}}, {"type": "Feature", "properties": {"id": "6851", "ident": "05TS", "name": "Dew Drop Airport", "type": "small_airport", "iso_country": "US", "municipality": "Justin", "iata_code": "", "icao_code": ""}, "geometry": {"type": "Point", "coordinates": [-97.35859680175781, 33.12929916381836]}}, {"type": "Feature", "properties": {"id": "6852", "ident": "05TX", "name": "Circle A Ranch Airport", "type": "small_airport", "iso_country": "US", "municipality": "Blum", "iata_code": "", "icao_code": ""}, "geometry": {"type": "Point", "coordinates": [-97.404582, 32.128974]}}, {"type": "Feature", "properties": {"id": "6854", "ident": "05V", "name": "Blanca Airport", "type": "small_airport", "iso_country": "US", "municipality": "Blanca", "iata_code": "", "icao_code": ""}, "geometry": {"type": "Point", "coordinates": [-105.552002, 37.411098]}}, {"type": "Feature", "properties": {"id": "6855", "ident": "05VA", "name": "Providence Airport", "type": "small_airport", "iso_country": "US", "municipality": "Farmville", "iata_code": "", "icao_code": ""}, "geometry": {"type": "Point", "coordinates": [-78.4186019897461, 37.22420120239258]}}, {"type": "Feature", "properties": {"id": "6856", "ident": "05VT", "name": "Port of Highgate Springs Heliport", "type": "heliport", "iso_country": "US", "municipality": "Highgate Springs", "iata_code": "", "icao_code": ""}, "geometry": {"type": "Point", "coordinates": [-73.08670043945312, 45.013301849365234]}}, {"type": "Feature", "properties": {"id": "6857", "ident": "05WA", "name": "Sacred Heart Medical Center Helistop", "type": "heliport", "iso_country": "US", "municipality": "Spokane", "iata_code": "", "icao_code": ""}, "geometry": {"type": "Point", "coordinates": [-117.41400146484375, 47.64820098876953]}}, {"type": "Feature", "properties": {"id": "6858", "ident": "05WI", "name": "Ames Private Airport", "type": "small_airport", "iso_country": "US", "municipality": "Darien", "iata_code": "", "icao_code": ""}, "geometry": {"type": "Point", "coordinates": [-88.74590301513672, 42.651100158691406]}}, {"type": "Feature", "properties": {"id": "45907", "ident": "05WN", "name": "Flat Creek Field", "type": "small_airport", "iso_country": "US", "municipality": "Kettle Falls", "iata_code": "", "icao_code": ""}, "geometry": {"type": "Point", "coordinates": [-118.0475, 48.702222]}},